Brand Name,City,Name,Latitude,Longitude,Phone,Fax,Email,Address
Aston Martin,New Delhi,Aston Martin New Delhi,28.529808,77.286988,011-49640000,011-43430055,SALES@ASTONMARTINNEWDELHI.COM,"A16, Mathura Road, Mohan Co-operative Industrial Area, Near Raj Business School, New Delhi, Delhi 110044"
Aston Martin,Mumbai,Aston Martin Mumbai,18.966224,72.808984,022-65811007,022-23515538,,"No.3, Crystal Building, Altamount Road, Tardeo, Kemps Corner, Mumbai, Maharashtra 400026"
Aston Martin,New Delhi,Aston Martin New Delhi,28.529808,77.286988,011-49640000,011-43430055,SALES@ASTONMARTINNEWDELHI.COM,"A16, Mathura Road, Mohan Co-operative Industrial Area, Near Raj Business School, New Delhi, Delhi 110044"
Audi,Ahmedabad,Audi Ahmedabad,23.074712,72.525451,9898053260,,jigar.maniar@audiahmedabad.com,"Shapath Hexa, Vishwas City 1, Sola Village, Near Sola Bridge, Opposite Gujarat Highcourt Sarkhej Gandhinagar Highway, Ahmedabad, Gujarat 380061"
Audi,Bangalore,Audi  Bengaluru,12.842286,77.676116,8025013700,,info@audibengaluru.in,"No 6/1, 15th km Hosur Main Road, Beratana, Electronic City, Bangalore, Karnataka 560100"
Audi,Bangalore,Audi Bengaluru Central,12.97019,77.600563,8042880000,,G-Info_central@audibengaluru.in,"UB Plaza, Vittal Mallya Road, Municipal No.1 and 2 Vitta, Bangalore, Karnataka 560001"
Audi,Bangalore,Audi  Bengaluru,12.842286,77.676116,8025013700,,info@audibengaluru.in,"No 6/1, 15th km Hosur Main Road, Beratana, Electronic City, Bangalore, Karnataka 560100"
Audi,Bangalore,Audi Bengaluru Central,12.97019,77.600563,8042880000,,G-Info_central@audibengaluru.in,"UB Plaza, Vittal Mallya Road, Municipal No.1 and 2 Vitta, Bangalore, Karnataka 560001"
Audi,Bhopal,Audi Bhopal,23.233093,77.430031,07556644444,,pramod@audiindore.com,"34B Ground floor, DB City mall, DB Mall, Arera Hills 34B, Bhopal, Madhya Pradesh 462001"
Audi,Bhubaneswar,Audi Bhubaneswar,20.337321,85.884801,7381058016,,reach@audibhubaneswar.in,"Utkal Signature Building, Nh-5, Ctc-bbsr Road, Pahal, Jyoti Premiur, Bhubaneswar, Orissa 752101"
Audi,Kozhikode,Audi Kozhikode,11.313953,75.756002,9539011144,,"crm@audikozhikode.in,sales@audikozhikode.in","Sreeja Group, Nh 17 Calicut Kannur Highway, Puthiyangadi, Po Pavanagad, Kozhikode, Kerala 673021"
Audi,Chandigarh,Audi Chandigarh,30.700561,76.789337,7375002810,,info@audichandigarh.in,"Plot No 54, Industrial Area, Phase - 2, Chandigarh, Chandigarh 160002"
Audi,Chennai,Audi Chennai,13.025771,80.231868,9600095024,044-45600457,info@audichennai.in,"Jubilant motor Works,No.535, Anna Salai Nandanam, Near Hotel Majestic, Chennai, Tamil Nadu 600002"
Audi,Kochi,K.p. Cars Pvt. Ltd.,9.939492,76.31849,4843087777,,service@audikochi.in,"Meleth Lane, Behind IBP Petrol Pump, NH 47 Vyttila Aroor, Bye Pass Road, Maradu, Survey No. 228/16, Kochi, Kerala 682001"
Audi,Coimbatore,Audi Coimbatore,11.003484,76.970152,0422-4030100,,info@audicoimbatore.in,"1020, Avinashi Road, Near Nehru Stadium, Coimbatore, Tamil Nadu 641018"
Audi,New Delhi,Audi Delhi South,28.517433,77.295321,7375811321,,info@audidelhisouth.net,"B1/H1, Mohan Cooperative Industrial Estate, Mathura Road, New Delhi, Delhi 110044"
Audi,New Delhi,Audi New Delhi West,28.661764,77.151826,7375006379,,cre@audinewdelhiwest.com,"Plot No-9A, Moti Nagar, Najafgarh Road, New Delhi, Delhi 110005"
Audi,Ernakulam,Audi Kochi,9.939518,76.318498,9249412345,,"info@audikochi.in,sales@audikochi.in","Kp Cars Private Limited, Nh-47 Vytilla Aroor Bypass Road, Marudu P O, Survey No. 228/1, Ernakulam, Kerala 682304"
Audi,Goa,Audi Goa,15.46668,73.806463,08322465155,,,"H.No-15/153/A1, Miramar-Dona Paul highway, Caranzalem, Panjim, Near&nbsp;Caranzalem Petrol Pump, Goa, Goa 403002"
Audi,Goa,M.v.r. Automobile Pvt. Ltd.,15.368608,73.9448,8326621771,,cre1@audigoa.com,"Near Choksi Laboratories, Phase 1-A, Verna Industrial Estate Plot no B-21, Goa, Goa 403721"
Audi,Gurgaon,Audi Gurugram,28.498027,77.079259,7375002804,,info@audi-gurugram.in,"Plot No 288 A, Phase 4, Udyog Vihar, Sector 18, Gurgaon, Haryana 122001"
Audi,Gurgaon,Audi Gurugram,28.498027,77.079259,7375002804,,info@audi-gurugram.in,"Plot No 288 A, Phase 4, Udyog Vihar, Sector 18, Gurgaon, Haryana 122001"
Audi,Guwahati,Audi Guwahati,26.1117,91.780105,7399022022,,info@audiguwahati.com,"Lalmati, National Highway 37, Guwahati, Assam 781028"
Audi,Hyderabad,Audi Hyderabad,17.445534,78.38519,04023324545,,,"8, Ground Floor, CSR Estate, Madhapur, Sector 01, HUDA Techno Enclave, Hyderabad, Telangana 500081"
Audi,Hyderabad,Olympus Motors Pvt. Ltd.,17.410469,78.437707,4023324545,,info@audihyderabad.in,"Rashtrapathi Road, Road No. 12, No. 8571, Hyderabad, Telangana 500004"
Audi,Indore,Audi Indore,22.770936,75.905891,9977439999,0731-4277111,info@audiindore.com,"Mr 11 Kataria Complex, Ring Road, Dewas Naka, Near Metro Whole Sale, Indore, Madhya Pradesh 452010"
Audi,Jaipur,Audi Jaipur,26.916892,75.804099,8875020009,,info@audijaipur.com,"Kamal & Company, Mi Road, Opp. Gpo, Jaipur, Rajasthan 302001"
Audi,Jammu,Audi Jammu,32.672137,74.883801,0191-2482751,,sales@audijammu.com,"NH-1A, Kunjwani Bye pass road, 5th Milestone, Jammu, Jammu and Kashmir 180010"
Audi,Karnal,Audi Karnal,29.601509,76.98001,8199924200,,"manish.gupta@audikarnal.in, info@audikarnal.in","113/12, Nh-1, Milestone, B.p.o Madhuban, Karnal, Haryana 132001"
Audi,Kochi,K.p. Cars Pvt. Ltd.,9.939492,76.31849,4843087777,,service@audikochi.in,"Meleth Lane, Behind IBP Petrol Pump, NH 47 Vyttila Aroor, Bye Pass Road, Maradu, Survey No. 228/16, Kochi, Kerala 682001"
Audi,Kolkata,Audi Kolkata,22.545015,88.360563,9163036666,,sales@audikolkata.com,"Jaika vhicle pvt. Ltd.,9, Ajc Bose Road, Mullick Bazar, Park Street Area, Kolkata, West Bengal 700017"
Audi,Kozhikode,Audi Kozhikode,11.313953,75.756002,9539011144,,"crm@audikozhikode.in,sales@audikozhikode.in","Sreeja Group, Nh 17 Calicut Kannur Highway, Puthiyangadi, Po Pavanagad, Kozhikode, Kerala 673021"
Audi,Lucknow,Audi Lucknow,26.769773,80.8772,9598666666,,info@audilucknow.in,"Forwheels auto pvt ltd,Khasra N0. 464&465, Chillawan Kanpur Road, Vijayanagar Colony, Near Amousi Airport Circle, Lucknow, Uttar Pradesh 226023"
Audi,Ludhiana,Audi Ludhiana,30.871474,75.912344,1613088888,,,"Plot No. 3, Ambala, GT Road Towards, Ludhiana, Punjab 141003"
Audi,Madurai,Audi Madurai,9.973039,78.040427,0452-2543400,,,"Madurai To Dindugal National Highway, Samayanallur(post), Madurai, Madurai, Tamil Nadu 625402"
Audi,Mangalore,Audi Mangalore,12.869073,74.858055,9900068897,,info@audimangalore.in,"Mak Mall Ground Floor, Kankanady Bypass Rd, Kankanady, Mangalore Gate Bus Stop, Mangalore, Karnataka 575002"
Audi,Mumbai,Audi Mumbai South,18.976843,72.809752,022 6616 8000,,sales@audimumbaisouth.net,"17, Vasundhara Building, Bhulabhai Desai Road, Haji Ali, Tardeo, Mumbai, Maharashtra 400026"
Audi,Mumbai,Audi Mumbai West,19.12959,72.831686,7375006158,,"sales@audimumbaiwest.in, crmsales@audimumbaiwest.in","New Link Road, Neo Vikram, Andheri West, Ground Floor, Opp. Star Bazzar, Mumbai, Maharashtra 400008"
Audi,Nagpur,Audi Nagpur,21.155891,79.07848,7350037777,7104-232278,sales@audinagpur.in,"01, Commercial Road, Besides Jaika Building, Nagpur, Maharashtra 440001"
Audi,Nashik,Audi Nashik,19.950498,73.75088,8879250304,,info@audinashik.in,"M Square automobiles pvt. Ltd.,Plot No. B-3, Lokmat Bhavan, Mumbai-agra Highway, Ambad,  Off, Midc, Nashik, Maharashtra 422010"
Audi,New Delhi,Audi Delhi South,28.517433,77.295321,7375811321,,info@audidelhisouth.net,"B1/H1, Mohan Cooperative Industrial Estate, Mathura Road, New Delhi, Delhi 110044"
Audi,New Delhi,Audi New Delhi West,28.661764,77.151826,7375006379,,cre@audinewdelhiwest.com,"Plot No-9A, Moti Nagar, Najafgarh Road, New Delhi, Delhi 110005"
Audi,Panaji,M.v.r. Automobile Pvt. Ltd.,15.466666,73.806466,8888049000,,info@audigoa.com,"H.No-15/153/A1, Miramar-Dona Paul highway, Caranzalem, Near Caranzalem Petrol Pump, Panaji, Goa 403001"
Audi,Pune,Audi Pune,18.548074,73.772804,9881400200,,info@audipune.in,"Jubilant motor Works,Sr. No. 45/1 to 10/1, Mumbai-bangalore Bypass Highway, Baner, Aditya English E School, Pune, Maharashtra 411045"
Audi,Raipur,Audi Raipur,21.257623,81.563956,8223817777,0771-4024779,marketing@audiraipur.in,"Labhandi, G. E Road G.F. 19, N.H.6, Raipur, Chhattisgarh 492001"
Audi,Raipur,Audi Raipur,21.257452,81.563978,07714024777,,,"G.E Road, Tatibandh, C.G, Raipur, Chhattisgarh 492099"
Audi,Rajkot,Audi Rajkot,22.314701,70.835563,9924440984,,info@audirajkot.com,"Kuvadva - Rajkot Road, Anandpar, Near Patel Vihar Garden Restaurant, Rajkot, Gujarat 360007"
Audi,Rajkot,Audi Rajkot,22.314701,70.835563,7069035657,,info@audirajkot.com,"Kuvadva - Rajkot Road, Anandpar, Near Patel Vihar Garden Restaurant, Rajkot, Gujarat 360007"
Audi,Surat,Audi Surat,21.148544,72.760425,9662515080,,info@audisurat.com,"Nixinova Motors Pvt.Ltd.,43, T.p Scheme No: 03, Dumas Road, Rundh Magdalla, Nr. Rundhnath Mahadev Mandir, Surat, Gujarat 395007"
Audi,Thane,Audi Thane,19.225658,72.97775,7375006268,,sales@audithane.com,"326/6, Mohan Mill Compound, Goudbunder Road, Thane West, Next To Eicher Company, Thane, Maharashtra 400607"
Audi,Thane,Audi Thane,19.198252,72.949011,02241534444,,,"D-5, Road No. 34, Thane, Wagle Industrial Est MIDC, Thane, Maharashtra 400604"
Audi,Udaipur,Audi Udaipur,24.548627,73.687854,8875029804,,info@audiudaipur.com,"Kamal & Company, Nh8, Ahmedabad Road, Hiran Magrisajjan Nagar, Goverdhan Villas, Udaipur, Rajasthan 313001"
Audi,Vadodara,Audi Vadodara,22.268438,73.165493,0265-6503280,,service@audivadodara.com,"Corner Heights Vadsar Ring Road, Kalali, Near Delhi Public School, Vadodara, Gujarat 390012"
Audi,Visakhapatnam,Audi Visakhapatnam,17.731214,83.316129,8978291818,,sales@audivisakhapatnam.in,"Olympus Motors Pvt. Ltd,D. No. 52-10-1, Chalamala Commercial Complex, Resapuvanepalem, Beside Swarnabharati Indoor Stadium, Visakhapatnam, Andhra Pradesh 530035"
Audi,Visakhapatnam,Audi Visakhapatnam,17.731214,83.316129,8978291818,,sales@audivisakhapatnam.in,"Olympus Motors Pvt. Ltd,D. No. 52-10-1, Chalamala Commercial Complex, Resapuvanepalem, Beside Swarnabharati Indoor Stadium, Visakhapatnam, Andhra Pradesh 530035"
Bentley,New Delhi,Exclusive Motors,28.596959,77.197512,9971045555,,info@bentleyindia.net,"Hotel Samrat Lower,ground Floor, Kautilya Marg, Chanakyapuri, Diplomatic Enclave, New Delhi, Delhi 110021"
Bentley,Mumbai,Exclusive Motors,19.075984,72.877656,022-22885556,,,"Dhanraj Mahal, Csm Road, Apollo Bunder, Victoria Terminus, Mumbai, Maharashtra 400001"
Bentley,New Delhi,Exclusive Motors,28.596959,77.197512,9971045555,,info@bentleyindia.net,"Hotel Samrat Lower,ground Floor, Kautilya Marg, Chanakyapuri, Diplomatic Enclave, New Delhi, Delhi 110021"
BMW,Ahmedabad,Gallops Autohaus.,22.991156,72.49712,7375003758,,cse.ahm@bmw-gallopsautohaus.in,"S G Highway, Sarkhej, Sarkhej Sanad Cross road, Ahmedabad, Gujarat 380007"
BMW,Aurangabad,Bavaria Motors,19.873489,75.388156,77680 06000,,,"Plot no P/1/2, Chikhalthana Industrial Area, MIDC, Aurangabad, Maharashtra 431006"
BMW,Bangalore,Navnit Motors,12.862536,77.659779,7375097860,080-28523053,"prity.zafar@bmw-navnitmotors.in, fahad.shaik@bmw-navnitmotors.in","4, Hosur Road, Konappana Agrahara Begur Hobli, Near Electronic City, Bangalore, Karnataka 560100"
BMW,Bangalore,Navnit Motors,12.97299,77.599516,080-22224544,080-22223636,enquiry.bng@bmw-navnitmotors.in,"No-2,(old No-4), Prestige Emerald,ground Floor, Madras Bank Road, Vasanth Nagar, Near Lavelle Road, Bangalore, Karnataka 560001"
BMW,Bangalore,Navnit Motors,12.862536,77.659779,7375097860,080-28523053,"prity.zafar@bmw-navnitmotors.in, fahad.shaik@bmw-navnitmotors.in","4, Hosur Road, Konappana Agrahara Begur Hobli, Near Electronic City, Bangalore, Karnataka 560100"
BMW,Bangalore,Navnit Motors,12.97299,77.599516,080-22224544,080-22223636,enquiry.bng@bmw-navnitmotors.in,"No-2,(old No-4), Prestige Emerald,ground Floor, Madras Bank Road, Vasanth Nagar, Near Lavelle Road, Bangalore, Karnataka 560001"
BMW,Bhubaneswar,O S L Prestige,20.290635,85.845373,7894092484,0674-2541170,info@bmw-oslprestige.in,"5B, Saheed Nagar, Near Hotel Empires, Bhubaneswar, Orissa 751007"
BMW,Kozhikode,Platino Classic,11.274316,75.773871,0495-6696666,0495-6696677,info@bmw-platinoclassic.in,"Bldg No.1/3699, Nadakkavu P.o,kozhikode, Vandipetta, Kozhikode, Kerala 673011"
BMW,Chandigarh,Krishna Automobiles,30.704247,76.802518,7375006415,0172-4602301,info@bmw-krishnaautomobiles.in,"125, Phase I, Industrial Area, Chandigarh, Chandigarh 160002"
BMW,Chennai,K U N Exclusive,12.985608,80.173956,9551909999,,jayashankar.rajagopal@bmw-kunexclusive.in,"20, Meenambakkam, Gst Road, Chennai, Tamil Nadu 600027"
BMW,Chennai,K U N Exclusive,13.058613,80.264156,044-28464441,,info@bmw-kunexclusive.in,"Shop No.UGFD01, Express Avenue Mall Showroom, Ground Floor, No.49,50L, Royapettah, Whites Road, Chennai, Tamil Nadu 600014"
BMW,Chennai,Kun Motor,13.094955,80.172083,4449261111,,info@bmw-kunexclusive.in,"B7 &amp; B8, Ambattur, Ambattur Industrial Estate, Chennai, Tamil Nadu 600058"
BMW,Kochi,Evm Autokraft India Pvt Ltd,10.051173,76.319869,8113033333,,info@bmw-evmautokraft.in,"23/649 A1, Angel Plaza, NH 47, South Kalamassery, Kalamasery, Kochi, Kerala 682022"
BMW,Kochi,Platino Classic Motors,9.948311,76.318825,4846696666,,info@bmw-platinoclassic.in,"No. II 6B, NH - 47, Maradu P.O. Cochin, Vytilla Aroor By-Pass Road:, Kochi, Kerala 692306"
BMW,Coimbatore,K U N Exclusive,11.009127,77.03736,0422-3041111,422 3041100,info@bmw-kunexclusive.in,"Door No: 1/582-2, Avinashi Road, Arasur Post, Sulur Taluk, Neelambur village, Coimbatore, Tamil Nadu 641408"
BMW,Coimbatore,Kun Motor,11.019595,77.036449,4222270900,,info@bmw-kunexclusive.in,"No. 33A, Neelikonam Palayam, Aerodrome Road, Coimbatore, Tamil Nadu 641033"
BMW,Cuttack,Osl Prestige,20.460074,85.901685,6716543968,,info@bmw-oslprestige.in,"N H 5 PO, Bhanpur, Gopalpur National Highway, Cuttack, Orissa 753011"
BMW,New Delhi,Deutsche Motoren,28.517727,77.29511,011-43090000,011-41682555,info-south@bmw-deutschemotoren.in,"B-1/H-5, Mohan Co-operative Industrial Estate, Mathura Road, New Delhi, Delhi 110044"
BMW,New Delhi,Deutsche Motoren,28.652858,77.132282,011-47260000,011-47260055,info-west@bmw-deutschemotoren.in,"27B, Moti Nagar, Shivaji Marg, New Delhi, Delhi 110015"
BMW,Ernakulam,Platino Classic,9.94818,76.318604,9529664131,,,"2/6B, Nh-47, Maradu, Bypass Road, Ernakulam, Kerala 682304"
BMW,Faridabad,Deutsche Motoren,28.439761,77.308139,0129-4269000,0129-4269055,info@bmw-deutschemotoren.in,"Plot No.1, Mathura Road, Urban Estate, Sector-27b, Faridabad, Haryana 121003"
BMW,Gurgaon,Bird Automotive,28.470922,77.054082,7375879989,0124-3996162,info@bmw-birdautomotive.in,"4 Idc, Sector -14, Near Mg Road, Gurgaon, Haryana 122001"
BMW,Gurgaon,Bird Automotive.,28.421422,77.104658,8468851212,,info@bmw-birdautomotive.in,"1 Baani, Golf Course Road, Sector 56, Gurgaon, Haryana 122011"
BMW,Gurgaon,Bird Automotive,28.470922,77.054082,7375879989,0124-3996162,info@bmw-birdautomotive.in,"4 Idc, Sector -14, Near Mg Road, Gurgaon, Haryana 122001"
BMW,Gurgaon,Bird Automotive.,28.421422,77.104658,8468851212,,info@bmw-birdautomotive.in,"1 Baani, Golf Course Road, Sector 56, Gurgaon, Haryana 122011"
BMW,Hyderabad,K U N Exclusive,17.416766,78.457052,040-44656565,040-44656566,info@bmw-kunexclusive.in,"6-3-569, Khairtabad, Opposite R.t.a Office, Hyderabad, Telangana 500082"
BMW,Indore,Infinity Cars,22.771106,75.907732,0731-4008989,0731-4008999,info@bmw-infinitycars.in,"No17, Mangal Compound, Mr-11, Pipliya Kumar Dewas Naka, Near Smriti College Of Pharma Edu, Indore, Madhya Pradesh 452010"
BMW,Jaipur,Sanghi Classic,26.85598,75.794723,0141-4087070,0141-2551465,info@bmw-sanghiclassic.in,"Tonk Road, Sanghi Garden, Mahaveer Nagar-1, Opp J.oberoi Caterers, Jaipur, Rajasthan 302018"
BMW,Kanpur,Speed Motorwagen,26.481452,80.345839,0512-6541001,0522-3917128,info@bmw-speedmotorwagen.in,"15/63, Parwati Bagla Road, Civil Lines, Green Park Next to Krishna Tower, Kanpur, Uttar Pradesh 208001"
BMW,Kanpur,Speed Motorwagen,26.462113,80.299406,07275580001,,,"No. 64, Kalpi Road, Fazalganj, Government Industrial Estate, Kanpur, Uttar Pradesh 208001"
BMW,Kochi,Evm Autokraft India Pvt Ltd,10.051173,76.319869,8113033333,,info@bmw-evmautokraft.in,"23/649 A1, Angel Plaza, NH 47, South Kalamassery, Kalamasery, Kochi, Kerala 682022"
BMW,Kochi,Platino Classic Motors,9.948311,76.318825,4846696666,,info@bmw-platinoclassic.in,"No. II 6B, NH - 47, Maradu P.O. Cochin, Vytilla Aroor By-Pass Road:, Kochi, Kerala 692306"
BMW,Kolkata,O Sl  Prestige,22.548805,88.400365,033-22517010,033-22517011,info@bmw-oslprestige.in,"5, The Silver Arcade, Em Bypass, Jbs Halden Avenue, Mathpukur Bus Stop, Kolkata, West Bengal 700105"
BMW,Kolkata,Osl Prestige,22.539161,88.402795,339874058048,,info@bmw-oslprestige.in,"43, PO Dhapa Topsia, East Topsia Road Arupota, Kolkata, West Bengal 700105"
BMW,Kozhikode,Platino Classic,11.274316,75.773871,0495-6696666,0495-6696677,info@bmw-platinoclassic.in,"Bldg No.1/3699, Nadakkavu P.o,kozhikode, Vandipetta, Kozhikode, Kerala 673011"
BMW,Lucknow,Speed Motorwagen,26.885104,81.0473,0522-6540000,,info@bmw-speedmotorwagen.in,"Faizabad Road, 12.2 Kms,chinhat, Near Bbd College, Lucknow, Uttar Pradesh 226018"
BMW,Ludhiana,Krishna Automobiles,30.881869,75.89458,0161-5250000,0161-5255253,info@bmw-krishnaautomobiles.in,"G. T. Road, Dhandari Khurd, Focal Point, Ludhiana, Punjab 141014"
BMW,Madurai,Kun Motor,9.874714,78.027509,4442911111,,info@bmw-kunexclusive.in,"Survey No:82/9A2 - 12A, Thoppur Village, NH 7, Virudhunagar Road, Madurai, Tamil Nadu 625001"
BMW,Mangalagiri,K U N Exclusive,16.423561,80.565781,0864-5236565,0864-5236465,info@bmw-kunexclusive.in,"Plot No. 4, Old Nh-5, District Guntur Mangalagiri, Industrial Park, Mangalagiri, Andhra Pradesh 522503"
BMW,Mangalore,Navnit Motors,12.870945,74.894493,0824-2275333,0824-2275444,enquiry.mng@bmw-navnitmotors.in,"No. 48, Kodikal, Kannur Village, Padil, Mangalore, Karnataka 575007"
BMW,Mumbai,Navnit Motors,19.115982,72.840873,7375006241,022-26252288,customercare.andheri@bmw-navnitmotors.in,"C Wing Waterford Building, C D Burfiwala Road, Andheri West Mumbai, Juhu Lane, Mumbai, Maharashtra 400058"
BMW,Mumbai,Navnit Motors,19.189209,72.835879,7375004709,022-66772200,customercare.malad@bmw-navnitmotors.in,"C/o Sasangi Engineering, New Malad Link Road, Malad (w), Ramchandralane Junction, Mumbai, Maharashtra 400064"
BMW,Mumbai,Infinity Cars,18.988298,72.814568,022-67145100,022-67145199,info@bmw-infinitycars.in,"Dr. Annie Besant Road, Worli, Opp. Nehru Centre, Mumbai, Maharashtra 400018"
BMW,Mumbai,Infinity Cars,18.92408,72.821995,022-66664848,022-67145199,info@bmw-infinitycars.in,"Maker Chamber Vi, Nariman Point, Jamnalal Bajaj Road, Mumbai, Maharashtra 400021"
BMW,Nagpur,Munich Motors,21.14517,79.003754,7569880827,0710-4645533,info@bmw-munichmotors.in,"C-48/1A, Central Midc Road, Hingna Midc, Near Toll Plaza, Nagpur, Maharashtra 440028"
BMW,Navi Mumbai,Infinity Cars,19.051911,73.019578,022-27739000,,info@bmw-infinitycars.in,"Near Juhi Nagar Railway Station, Plot No.50, Sector No.1, Near Nerul, Navi Mumbai, Maharashtra 400706"
BMW,New Delhi,Deutsche Motoren,28.517727,77.29511,011-43090000,011-41682555,info-south@bmw-deutschemotoren.in,"B-1/H-5, Mohan Co-operative Industrial Estate, Mathura Road, New Delhi, Delhi 110044"
BMW,New Delhi,Deutsche Motoren,28.652858,77.132282,011-47260000,011-47260055,info-west@bmw-deutschemotoren.in,"27B, Moti Nagar, Shivaji Marg, New Delhi, Delhi 110015"
BMW,Noida,Deutsche Motoren,28.631098,77.380111,0120-4199000,0120-4199055,info@bmw-deutschemotoren.in,"Sector-63, H-8, Noida, Uttar Pradesh 201301"
BMW,Pune,Bavaria Motors,18.51991,73.873773,9922971117,020-26141777,Zeeba.Irani@bmw-bavariamotors.in,"15 B, Wellesley Road, Camp, Beside Lal Deval, Pune, Maharashtra 411001"
BMW,Pune,Bavaria Motors,18.508158,73.919521,2027030333,,info@bmw-bavariamotors.in,"Plot no. 25, Industrial Estate, Near Wanowrie Hadapsar, Pune, Maharashtra 411014"
BMW,Raipur,Munich Motors,21.241658,81.580475,0771-6555000,0771-6007000,info@bmw-munichmotors.in,"Ring Road No.1, Sarona, Near Petrol Pump Raipur, Raipur, Chhattisgarh 492010"
BMW,Rajkot,Gallops Autohaus,22.236738,70.80086,7375003758,,cse.ahm@bmw-gallopsautohaus.in,"S S V complex, Opp. Krishna Park, Service Road, Gondal Road, Rajkot, Gujarat 360004"
BMW,Ranchi,Titanium Autos,23.464696,85.457856,9608104485,,"customercare@bmw-titaniumautos.in,  jayashish.mishra@bmw-titaniumautos.in","NH-33, Birsa Munda, Zoological Park, Chakla, Ormanjhi Opp., Ranchi, Jharkhand 835219"
BMW,Surat,Bmw Eminent Cars,21.151087,72.762173,7375002808,,Marketing.Manager@bmw-eminentcars.in,"Plot No. 3, T.P.No.3, F.P.No.38, Dumas Road, Rundh Paikee, Beside Rangoli Restaurant, Surat, Gujarat 395007"
BMW,Udaipur,Bmw Sanghi Classic,24.575372,73.748795,9214292145,,info@bmw-sanghiclassic.in,"E-95, Road No.1, Madri Industrial Area, Ahmedabad Bypass, Udaipur, Rajasthan 313003"
BMW,Verna,Bavaria Motors,15.346958,73.92933,9552523490,0832-2887773,info@bmw-bavariamotors.in,"Plot No.2b, Verna Plateau, Salcete, Verna Industrial Estate, Verna, Goa 403722"
Bugatti,New Delhi,Bugatti New Delhi,28.602265,77.192685,919971045555,,,"Lower Ground floor, Hotel Samrat, Chanakyapuri, Kautilya Marg, New Delhi, Delhi 110021"
Bugatti,New Delhi,Bugatti New Delhi,28.602265,77.192685,919971045555,,,"Lower Ground floor, Hotel Samrat, Chanakyapuri, Kautilya Marg, New Delhi, Delhi 110021"
DC,Mumbai,Dc Design,19.11476,72.869093,9870133333,022-28217392,johncolaco@dcdesign.co.in,"Kondivita Road, Midc,andheri (east), Keytuo Industrial Compound, Mumbai, Maharashtra 400059"
DC,Pune,Aadivenoo Motors,18.547185,73.772551,8380040661,,aditya@pune.dcdesign.co.in,"M-arch Centre, Pashan-sus Road, Survey No-48,baner, Opp. Audi Service Station, Pune, Maharashtra 411045"
Ferrari,New Delhi,Select Cars,28.529775,77.287372,9911332203,011-43430000,"info@ferrarinewdelhi.in, sanjeev@selectcars.co.in","A-19, Mohan Cooperative Industrial Estate, Block E, New Delhi, Delhi 110044"
Ferrari,Mumbai,Navnit Motors,19.06846,72.868236,02261716171,022-24813336,Nargis.kazerooni@navnitmotors.com.,"Plot 59, G-2 Platina Building, Bkc - Bandra (e), Near City Bank, Mumbai, Maharashtra 400051"
Ferrari,New Delhi,Select Cars,28.529775,77.287372,9911332203,011-43430000,"info@ferrarinewdelhi.in, sanjeev@selectcars.co.in","A-19, Mohan Cooperative Industrial Estate, Block E, New Delhi, Delhi 110044"
Fiat,Agra,Kalyan Automart Private Limited,27.219745,77.933078,9837045973,,divesh@kalyangroup.com,"Sikandara Bye Pass Road, Near Mango Hotel, Agra, Uttar Pradesh 282007"
Fiat,Ahmedabad,Bhaskara Fiat,23.020784,72.564797,9925004059,,bhaskarasales1@gmail.com,"Devansh Building Ground Floor, Gujarat College Road, Ellis Bridge, Near Akashganga Complex, Ahmedabad, Gujarat 380006"
Fiat,Ahmedabad,Bhaskara Fiat,23.020763,72.564801,,,bhaskarasales1@gmail.com,"75, Bhram Khsatriya Society, Ellisbridge, Gujarat College Road, Ahmedabad, Gujarat 380006"
Fiat,Ahmednagar,Sky Moto Automobiles Pvt Ltd,18.530668,73.829883,8956446644,,salespcmc@skyfiat.com,"Showroom no. 01 & 02, Ground Floor, ICC Tech Park, Bapat Road, Pune, Sr. No. 403, Senapati, Ahmednagar, Maharashtra 413201"
Fiat,Allahabad,Eldee Fiat,25.454344,81.835017,,,eldee.sm.fca@gmail.com,"2, Sardar Patel Marg, Allahabad, Civil Lines, Allahabad, Uttar Pradesh 211001"
Fiat,Ambala,Metro Motors,30.340473,76.835008,9729026999 ,,Fiatservice@Metromotors.Co.In,"106, Railway Road, Ambala Cantt, Near Football Chowk, Ambala, Haryana 133001"
Fiat,Amritsar,Novelty Jeep,31.607503,74.92881,8288018861,,noveltyjeep@noveltygroup.in,"Novelty Fiat, G.T. Road, Near Amritsar Gate, Amritsar, Punjab 143001"
Fiat,Aurangabad,Varada Vehicle Pvt Ltd,19.87685,75.371263,9850533366,,gmsales@varada-fca.com,"C/o Prozone Mall P80/D5, API compound, Aurangabad, Chikalthana, Aurangabad, Maharashtra 431006"
Fiat,Bangalore,Fiat Caffe - (also Exclusive Dealership Of Fiat Abarth),12.956696,77.641596,9035002267,,sanjai@khtagencies.com,"92/93, Koramangala Inner Ring road, Amarjyothi Layout, Bangalore, Karnataka 560071"
Fiat,Bangalore,Kht Agencies Private Limited,13.02455,77.546616,8494900001,,,"No.44, Tumkur Road, Opposite To Shell Petrol Pump, Industrial Suburb Service Road, Bangalore, Karnataka 560002"
Fiat,Bangalore,Mps Motors,12.900848,77.572725,9940177000,,salesmanager-ngm@ramkay-fca.com,"GR Grand Plaza, Kanakapura Main Road, JP Nagar Phase 6, Sy. No. 70, Bangalore, Karnataka 560078"
Fiat,Bangalore,Vecto Motors,12.876007,77.647757,09686705500,,"sales@vectomotors.com,giri@vectomotors.com","No.58/1-a, Hosur Main Road, Singasindra, Near Popular Hospital & Research Centre, Bangalore, Karnataka 560068"
Fiat,Belgaum,Sutaria Automobiles,15.901585,74.521904,8314208822,,utariafiat@gmail.com,"Plot # 1M, Bauxite Road, Industrial Area, Kangrali, Belgaum, Karnataka 590010"
Fiat,Belgaum,Sutaria Fiat,15.901587,74.521903,8904897989,,Sutariafiat@Gmail.Com,"Plot # 1M, Bauxite Road, Kangrali Industrial Area, Belgaum, Karnataka 590010"
Fiat,Bangalore,Fiat Caffe - (also Exclusive Dealership Of Fiat Abarth),12.956696,77.641596,9035002267,,sanjai@khtagencies.com,"92/93, Koramangala Inner Ring road, Amarjyothi Layout, Bangalore, Karnataka 560071"
Fiat,Bangalore,Kht Agencies Private Limited,13.02455,77.546616,8494900001,,,"No.44, Tumkur Road, Opposite To Shell Petrol Pump, Industrial Suburb Service Road, Bangalore, Karnataka 560002"
Fiat,Bangalore,Mps Motors,12.900848,77.572725,9940177000,,salesmanager-ngm@ramkay-fca.com,"GR Grand Plaza, Kanakapura Main Road, JP Nagar Phase 6, Sy. No. 70, Bangalore, Karnataka 560078"
Fiat,Bangalore,Vecto Motors,12.876007,77.647757,09686705500,,"sales@vectomotors.com,giri@vectomotors.com","No.58/1-a, Hosur Main Road, Singasindra, Near Popular Hospital & Research Centre, Bangalore, Karnataka 560068"
Fiat,Bhubaneswar,Shree Bharat Motors,20.308542,85.886595,8599011316	,,"Srinivas.Dash@Bharats.in,bharath.ch@gmail.com","Plot No. 213/214, Nh-5, Pahal,balianta, Near Pratistha Automobiles, Bhubaneswar, Orissa 752101"
Fiat,Bijapur,Rohan Fiat,16.863043,75.742964,9742259842	,,"Rohanfiat.Service@Gmail.Com,Rohanfiat.Bijapur@Gmail.Com","Hanchinal, Near Ibrahimpur Railway Gate, Bijapur, Karnataka 586101"
Fiat,Bilaspur,Car Planet,22.079625,82.139141,8225870444	,,"Car.Planet.Raipur@Gmail.Com,nikk_211@yahoo.co.in","Uslapur, Near City Mall, Bilaspur, Chhattisgarh 495001"
Fiat,Kannur,Kvr Prestige Cars,11.874477,75.370366,8129702571 ,,jithinbhargavan@kvrfiat.com,"XI-193A,193B,193C & 193D, Kizhuthally,thazhe Chovva Po, Near K.p. Tower, Kannur, Kerala 670018"
Fiat,Chennai,R D C Fiat,13.026592,80.23119,9940222050,,smsales@rdcfiat.com,"NO.41, First Main Road, Cit Nagar, Nandanam, Opposite The Ark Veterinary Clinic, Chennai, Tamil Nadu 600035"
Fiat,Chennai,Ramkay Agencies,13.04781,80.108824,,,,"No: 18/6, Kattupakkam, Mount Poonamallee High Road, Chennai, Tamil Nadu 600056"
Fiat,Chennai,Ramkay Fca,13.053832,80.249416,9940177000,,jeep@ramkay-fca.com,"Old No. 179 New No. 8, Nungambakkam, Kodambakkam High Road, Chennai, Tamil Nadu 600034"
Fiat,Coimbatore,Srt Fiat,11.025346,76.951191,7375091626,,agm@srtgroup.co.in,"1151A, Meetupalayam Main Road, opp-Ganga Hospital, Coimbatore, Tamil Nadu 641001"
Fiat,Dehradun,Lsc Auto Wheels,30.269924,77.986364,8954800123	,,gmsales@lsc-fca.com,"Mohabewala Industrial Area, Saharanpur Road, Opp.Manav Kendra, Dehradun, Uttaranchal 248002"
Fiat,New Delhi,Landmark Lifestyle Fiat,28.662185,77.151716,,,,"Plot No.10A, Motinagar, Shivaji Marg, New Delhi, Delhi 110015"
Fiat,Ernakulam,Hyson Auto Sales,9.962003,76.240842,9526063500 ,,Smsalescochin@Hysonfiat.Com,"NO 32/2007B, Nh 47 Bye Pass, Vyttila, Fort Kochi, Ernakulam, Kerala 682032"
Fiat,Faridabad,Drs Motors,28.469978,77.306982,7840006582	,,Sales@Drsmotors.In,"12/7, Delhi Mathura Road, Sarai-khwaja, Near Crown Interize Mall, Faridabad, Haryana 121003"
Fiat,Goa,Mvr Automotive,15.470053,73.809355,08322463919,,info@mvr-fca.com,"15/53/a3, Miramar Highway, Caranzalem Miramar In Tiswadi, Opp Harley Davidson Showroom, Goa, Goa 403002"
Fiat,Gurgaon,Landmark Lifestyle Cars Pvt Ltd,19.116093,72.841533,,,,"G-4  B-1, Ground Floor, M G Road, Solitaire Plaza, Gurgaon, Haryana 120002"
Fiat,Gurgaon,Landmark Lifestyle Cars Pvt Ltd,19.116093,72.841533,,,,"G-4  B-1, Ground Floor, M G Road, Solitaire Plaza, Gurgaon, Haryana 120002"
Fiat,Guwahati,Green Valley Motors,26.164796,91.780111,8471933111,,maheshfiat@outlook.com,"G-1, Sohum Residency, R.G Baruah Road, Near NRL Petrol Pump, Guwahati, Assam 781028"
Fiat,Hubli,Bellad Enterprises Private Limited,15.417204,75.059581,8362218337,,ales1@bellad-fca.com,"Opp. NGEF, Rayapur, Hubli, P.B. Road, Hubli, Karnataka 580025"
Fiat,Hubli,Manickbag Fiat,15.383616,75.12243,9845268183 ,,Crmfiat@Manickbag.Com,"Billangadi Complex, Vidynagar, Opp P C Jabin College, Hubli, Karnataka 580031"
Fiat,Hubli,Manickbag Fiat,15.353708,75.142324,9663373625	,,Partsfiat@Manickbag.Com,"Block No 278, Dharwar Road, Bhairedevarkoppa, Near Kalghatgi Hospital, Hubli, Karnataka 580020"
Fiat,Hyderabad,A V Motors,17.44109,78.479124,9505516655,,Crefiat@Avmotors.Co.In,"D.No.:1-8-303/45, Minister Road, Bapu Bagh Colony, Near Chung Hua, Hyderabad, Telangana 500002"
Fiat,Hyderabad,Sree Krishna Automotives,17.429572,78.412602,9505100014,,sm@pridefca.com,"Plot no 240, Nirvana, Road no 36, Jubilee Hills, Road no 36, Jubilee Hills, Hyderabad, Telangana 500033"
Fiat,Imphal,Nr Traders,24.82,93.95,8974008839 ,,Kiran-Nameirakpam@Yahoo.In,"Nh 102, Canchipur, Opposite Manipur University, Imphal, Manipur 795003"
Fiat,Indore,Satguru Engitech,22.69065,75.864791,7771010422,,satguru.fca@gmail.com,"10, Vishnu Puri, A.B. road, Vishnupuri, Near Medisquare Hospital, Indore, Madhya Pradesh 452001"
Fiat,Jabalpur,Khatwani Motors,23.155982,79.920389,7970111110,,info@khatwani-fca.com,"1142, Nagpur Main Road, Madan Mahal, Near Gulati Pump, Opposite Axis Bank - Bhasin Acropolis, Jabalpur, Madhya Pradesh 482001"
Fiat,Jaipur,Akar Cars Private Limited,26.987011,75.777203,1414709999,,jeepjaipur@rediffmail.com,"B-123A, Road No.9, Industrial Area, Vishwakarma, Jaipur, Rajasthan 302016"
Fiat,Jaipur,Akar Cars Private Limited,26.916023,75.79147,1414709999,,,"S-1, Fathe Singh Ki Dharamshaal, kalward Scheme, Station Road, Gopal bari, Jaipur, Rajasthan 302001"
Fiat,Jaipur,Sgpl Fiat,26.899844,75.742017,9983663428	,,Santoshgarage@Gmail.Com,"6, Santosh Gargage Building, Ajmer Road, Gopal Bari, Govind Nagar, Jaipur, Rajasthan 302013"
Fiat,Jalandhar,Goyal Jeep,31.29548,75.652087,8287688853,,salesjeep.jal@gitanshgroup.com,"G.T Road, Khajurla, Near Haveli, Jalandhar, Punjab 144409"
Fiat,Jammu,National Fiat,32.726602,74.857026,9086030100	,0191-2484400-02,Salesmanager@Nationalfiat.Com,"Nh1 A,bye Pass Road, Greater Kailash Chowk Fuwara Chowk, Near S.k. Farm, Jammu, Jammu and Kashmir 180011"
Fiat,Jamshedpur,Titania Auto Cars,22.820071,86.094135,,,,"229, Main Road, Gamharia, Saraikela Karshawan, Khata No.28, PO: Gamharia, Usha More, Jamshedpur, Jharkhand 832108"
Fiat,Jodhpur,Pc Bhandari Fiat,26.236556,73.000957,9414879342,,Chiragbhandari2008@Gmail.Com,"E-329/A, Road No 8, Basni 2nd Phase,basni, Opposite Aiims Hospital, Jodhpur, Rajasthan 342008"
Fiat,Kannur,Kvr Prestige Cars,11.874477,75.370366,8129702571 ,,jithinbhargavan@kvrfiat.com,"XI-193A,193B,193C & 193D, Kizhuthally,thazhe Chovva Po, Near K.p. Tower, Kannur, Kerala 670018"
Fiat,Kanpur,Smart Motors,26.482529,80.343146,7897995046	,," Mangalam26@Bsnl.In,Smartmotorsfiat@Outlook.Com","Plot No.01,14/75, Near Merchants Chamber Hall, Civil Lines, Collectorate Pl, Kanpur, Uttar Pradesh 208001"
Fiat,Karnal,Rahul Pam Pvt Ltd,29.647463,76.983438,,,,"G.T. Road, 118-119 Milestone, NH-1, Karnal, Haryana 132001"
Fiat,Kolhapur,Aaron Fiat,16.699833,74.248647,9765178585,,Gm@Aaronfiat.Com,"1169 B/2, Rajaram Road, “E” Ward, Kolhapur, Maharashtra 416008"
Fiat,Kolkata,Celica Automobiles,22.55143,88.353803,9051035485,,info@celica.in,"24, Park Street, Ground Floor of Annex Building, Kolkata, West Bengal 700016"
Fiat,Kota,Mundra Automobiles,25.133826,75.865124,7665012393 ,,mundrafiatcars@gmail.com,"G-10, Automobile Zone, Road No.5, Ipia, Near Tata Moters, Kota, Rajasthan 324005"
Fiat,Kurnool,Shivani Automotives,15.850869,78.005554,8518-251777,,shivanifiatcars@gmail.com,"Balaji Nagar, NH-44, Kurnool, Andhra Pradesh 518006"
Fiat,Lucknow,Classic Fiat,26.883115,80.931983,7375092131,,"classic.cars08@gmail.com,QAZI.4ALL@GMAIL.COM","Daliganj Railway Crossing Sitapur Road, Peeli Kothi, Triveni Nagar, Near Central Bank Of India, Lucknow, Uttar Pradesh 226020"
Fiat,Ludhiana,Goyal Jeep,30.857347,75.936155,7527007240,,salesjeep.ldh@gitanshgroup.com,"adjoining IBP Petrol Pump, Vill. Jugiana, G.T Road, Ludhiana, Punjab 141014"
Fiat,Ludhiana,Gitansh Autos Pvt Ltd,30.84712,75.937539,8872022222,,info@gitanshgroup.com,"GT Road, Ludhiana, Jugiana, Ludhiana, Punjab 141014"
Fiat,Madurai,Aras Pvpv Motori,9.951367,78.093587,9585277888,,salesmanager.mdu@arasgroup.org,"35/1, Dindigul National Highways, Vilangudi, Near ARC Parcel Service, Madurai, Tamil Nadu 625018"
Fiat,Meerut,Crystal Motors,28.922851,77.652043,,,sales@crystal-fca.com,"Khsra No- 363/2, Delhi Road, Village - Kundra, Kunda Gate Partapur, Meerut, Uttar Pradesh 250103"
Fiat,Mohali,Wsl Automobile,30.71675,76.702055,8195018887,,gm@wheelsfiat.com,"Plot No. D-144, Industrial Area Phase - 7, Near Competent, Mohali, Punjab 160055"
Fiat,Mumbai,Landmark Lifestyle Cars,18.989547,72.813566,7045877721,,,"D block, Dr Annie Besant Rd, Worli,  Shiv Sagar Estate, Mumbai, Maharashtra 400018"
Fiat,Mumbai,Landmark Lifestyle Cars Pvt Ltd,19.126134,72.854007,7045877737,,,"Peninsula Heights, C.D., Andheri (W), Barfiwala Marg, Juhu lane, Mumbai, Maharashtra 400058"
Fiat,Mysore,Urs Kar,12.330683,76.603031,9980141142,,Cre.Fiat@Urskar.Com,"201, Hunsur Main Road, Hinkal, Near The Monark Hotel, Mysore, Karnataka 570017"
Fiat,Nagpur,Central Avenue Trading Company Private Limited,21.15126,79.143868,9881722001,,amit.dange@jaikacars.com,"Plot No.40, Jalaram Nagar, Near Railway Crossing, Old Bhandara Road, Nagpur, Maharashtra 440008"
Fiat,Nashik,Moahrir Auto Trade Pvt Ltd,19.991994,73.745664,8446670555,,jeepnashik@gmail.com,"Trimbak Road, Plot.No.07, S.No.1043/02/02, Nashik, Maharashtra 422005"
Fiat,New Delhi,Landmark Lifestyle Fiat,28.662185,77.151716,,,,"Plot No.10A, Motinagar, Shivaji Marg, New Delhi, Delhi 110015"
Fiat,Panaji,Quadros Motors Private Limited,15.486345,73.820601,8411004077,,rufusquadros@gmail.com,"Shop No.2, Panaji, Dukle Arcade, St. Inez, Panaji, Goa 403001"
Fiat,Patna,Rrukmani Group Automobiles,25.600507,85.183215,7739555545,,Rukmanibuildtech@gmail.com,"Kankarbagh Main Road, Kumhrar, Near Kumhrar Park, Patna, Bihar 800020"
Fiat,Pune,Sky Moto Automobiles,18.603272,73.75259,7375880728,,Businesshead@skymoto-fca.com,"102, Pushpak Business Hub, Pune-Mumbai Highway, Chowk, Wakad, Pune, Maharashtra 411057"
Fiat,Pune,Sky Moto Fiat,18.530668,73.829883,7375880728,,Businesshead@skymoto-fca.com,"Ground Floor, B Wing, ICC Tower, S.B. Road, Shivaaji Nagar, Near Pantaloon Mall, Pune, Maharashtra 411005"
Fiat,Raipur,Car Planet,21.234021,81.592501,9617774019,0771-2227615,"Service.Acrm@Gmail.Com,Car.Planet.Raipur@Gmail.Com","Ring Road No.01, Upadhyay Nagar, Raipura, Opp. Deen Dayal Police Station, Raipur, Chhattisgarh 492001"
Fiat,Rajkot,Pride Fiat,22.244128,70.800398,9228009900	,,Sales@Pridefiat.Com,"National Highway 8b, Gondal Road, Gondal Ahmedabad,by Pass Circle, Beside Of Fly Over, Rajkot, Gujarat 360004"
Fiat,Ranchi,K P Automobiles,23.349378,85.335105,7781017903 ,,Kpautoranchi@Gmail.Com,"H.b Road, Lalpur Chowk,jharkhand, Near Hotel Arya, Ranchi, Jharkhand 834001"
Fiat,Ranchi,K.p Automobiles Pvt Ltd,23.376413,85.354115,6512542822,,kpautoranchi@gmail.com,"H.B Road  Near Post, Ranchi, Office  Kokar, Ranchi, Jharkhand 834001"
Fiat,Salem,The True Sai Works,11.682989,78.125935,9994077227 ,, Fiatsales@Thetruesai.Com,"Omalur Main Road, Narasodhipatti, Near Hotel Grand Estancia, Salem, Tamil Nadu 636001"
Fiat,Satara,Krishna Fiat,17.70014,74.047638,7719999912 ,,Rajeshgangatirkar@Gmail.Com,"SR.NO.522B/523B/513, At.post.wadhe, Near Hotel Vithal Kamats Original Family Restaurant, Satara, Maharashtra 415003"
Fiat,Solan,Tapan Industries,30.887718,77.088321,8629000372,,fcaservicemanagersolan@tapan.industries,"Barog Bye Pass, Solan, Goyal Complex-1, Shamlech, Solan, Himachal Pradesh 173211"
Fiat,Sonipat,Sahil Fiat,28.974805,77.018234,8222857570,,smsales@sahilfiat.com,"E-56/57, Main Rohtak Road, Gohana, Near Hindu Vidya Mandir, Sonipat, Haryana 131001"
Fiat,Srinagar,Arg Automobiles,34.030609,74.793509,9596888330,,,"Sanatnagar, Goripora Bypass, Srinagar, Jammu and Kashmir 190001"
Fiat,Surat,Sukrit Fiat,21.153035,72.778829,9725209292 ,,Sm@Sukritautolink.Com,"G1 & G2, Someshwar Cross Road, Udhna Magdalla Road, Vesu,milagro Mile Stone, Near Vir Narmad South Gujarat University, Surat, Gujarat 395007"
Fiat,Thiruvananthapuram,Deedi Motors,8.50692,76.908263,04712741009,,info@deedi-fca.com,"NH Bypass, Anayara P.O, Erumalathop, Venpalavattom, Thiruvananthapuram, Kerala 695029"
Fiat,Tiruchirappalli,Jayaraj Karz Fiat,10.744055,78.641983,,,,"152/2, Tiruchy-Madurai Main Road, Trichirappalli  Trichy, Panjapur, Tiruchirappalli, Tamil Nadu 620012"
Fiat,Tirunelveli,Rehoboth Cars Pvt Ltd,8.742244,77.716131,8220133335,,salesrehobothfiat@gmail.com,"134/135 - 5A, Madurai, Kanya Kumari 4 Way Lane, Tirunelveli, Reddiarpatti, Tirunelveli, Tamil Nadu 627007"
Fiat,Thiruvananthapuram,Deedi Motors,8.50692,76.908263,04712741009,,info@deedi-fca.com,"NH Bypass, Anayara P.O, Erumalathop, Venpalavattom, Thiruvananthapuram, Kerala 695029"
Fiat,Udaipur,Nidhi Kamal Company,24.574002,73.746999,8094111189,,gm@nidhikamalfca.com,"E- 78, Nidhi kamal Jeep, Mewar Industrial Area, Madri, Udaipur, Rajasthan 313001"
Fiat,Vadodara,Bhaskara Fiat,22.339696,73.177944,,,,"460, Opposite GSFC Colony Entrance, Old NH - 8  Dashrath, Near Ashok Leyland, Vadodara, Gujarat 390002"
Fiat,Vijayawada,Turbo Automotives,16.514943,80.704933,9298505555,,Turbofiat@Gmail.Com,"Nh-5 Main Road, Enikepadu, Opp. Enikepadu Panchayat Office, Vijayawada, Andhra Pradesh 521108"
Fiat,Visakhapatnam,Orange Automobiles Pvt Ltd,17.742622,83.260514,7799888247,,fca.sm@orangeauto.in,"Ground Floor, RR House, Visakhapatnam, Narasimha Nagar, Visakhapatnam, Andhra Pradesh 530024"
Fiat,Visakhapatnam,Orange Automobiles Pvt Ltd,17.742622,83.260514,7799888247,,fca.sm@orangeauto.in,"Ground Floor, RR House, Visakhapatnam, Narasimha Nagar, Visakhapatnam, Andhra Pradesh 530024"
Force,Agra,Shiel Autos,27.240124,77.840593,9897188000,,,"Plot No. 50, opp. Ananad Engineering College, Arsena, Agra, Uttar Pradesh 282007"
Force,Ahmedabad,Balubhai Motors,22.985554,72.500364,079-26820074,,,"Bhavani Centre, N.h. 8a, Sarkhej, Nr. Sapna Cinema, Ahmedabad, Gujarat 382210"
Force,Ahmednagar,Anuron Force,19.093311,74.746685,8983560089 ,,force@anuron.co.in,"Old Sarosh Motors, Gpo Road, College Area, Near Hotel Ashoka, Ahmednagar, Maharashtra 414001"
Force,Amritsar,Karan Motors,31.655544,74.932131,0183-6573777,,,"G.t. Road, Near Bye Pass, Amritsar, Punjab 143001"
Force,Angul,Adarsha Motors,20.80921,85.067984,9348257124,,,"Plot No: 3334/4272, Rantalei, Near Rto Office, Angul, Orissa 759132"
Force,Aurangabad,Shriram Cars,19.875466,75.370054,02402488004,,,"A-28, Shendra, Shendra Five Star M.I.D.C, Aurangabad, Maharashtra 431201"
Force,Bangalore,Khivraj Force,12.878004,77.64717,9448008395,,suvsales@kivrajforce.com,"234/131, Hosur Main Road, Singsandra, Next To Dakshin Honda Showroom, Bangalore, Karnataka 560068"
Force,Barshi,Shukla Force,18.256076,75.704483,9422644162,02184-226405,Shuklaautomobiles@gmail.com,"Plot No. 2-4-6-8-10, Cancer Hospital Road (gatachi Wadi), Industrial Estate No 3,sector A, Near Gatachi Wadi, Barshi, Maharashtra 413401"
Force,Bangalore,Khivraj Force,12.878004,77.64717,9448008395,,suvsales@kivrajforce.com,"234/131, Hosur Main Road, Singsandra, Next To Dakshin Honda Showroom, Bangalore, Karnataka 560068"
Force,Kozhikode,Pmh Force,11.220129,75.801306,0495-2321775,,,"Door No: 23/1248 B, Pulikkal Building, Thiruvannur(po), Meenchanda Bypass Road, Kozhikode, Kerala 673029"
Force,Kannur,G G Motors,11.85612,75.412521,4972835675,,,"Thottada, S. N. College Junction, Kannur, Kerala 670001"
Force,Chandigarh,Broadway Force,30.705742,76.807973,0172-2655313,0172-5052075,BROADWAY.CHD@GMAIL.COM,"Plot 75, Industrial Area Phase 1, Near To Bhushan Sales, Chandigarh, Chandigarh 160002"
Force,Chandrapur,Shakti Engineering,19.971919,79.301361,9890013217,,,"Morwa (padoli), Kanda Layout, Chandrapur, Maharashtra 442402"
Force,Chennai,M P C Force,13.047749,80.187862,9600084889,044-28583737,salesmager@mpc.com,"New No:85, Plot noFB4, Sidco Industrial Complex, Ambattur, Near Hcl Technologies, Chennai, Tamil Nadu 600058"
Force,Coimbatore,Nm & Co Force,11.002427,76.966754,9843884920,0422-2239828,smuthukrishn@forcemotors.com,"No 68, Nm & Co Force, Dr. Nanjappa Road, Att Colony, Near J&m Bake World, Coimbatore, Tamil Nadu 641018"
Force,New Delhi,Rohit Autowheels,28.362878,77.314651,9810578768,,,"K – 279, Nh–1, G.t. Karnal Road, Bhghat Singh Park, New Delhi, Delhi 110042"
Force,New Delhi,Tapl Force,28.660724,77.151636,9811999840,,TAPL_RAMA@YAHOO.COM,"33-33 A, Shivaji Marg, Rama Road Industrial Area, Near Haldiram, New Delhi, Delhi 110015"
Force,Dimapur,Vardhaman Automobile,25.881733,93.761423,8730888803,,,"Nh-29, Artc, Near Dto Office, 3rd Mile, Dimapur, Nagaland 797115"
Force,Dindigul,Kumar Auto Force,10.388826,77.937293,7373747570,,,"68/1, Kamatchipuram, Palani Main Road, Dindigul, Tamil Nadu 624001"
Force,Ernakulam,Poomkudy Force,10.017686,76.30308,9846338575,0484-2535276,forcesaleskochi@poomkudy.com,"34/1810 C, Poomkudy House, 2nd Floor, Nh-47 Road Bank Junction, Edappally, Nr State Bank Of Travancore, Ernakulam, Kerala 682011"
Force,Gaya,Vision Motocorp,24.73234,84.966565,7488601347,,,"Bodhgaya, Near Gaya Industrial Area, Gaya, Bihar 824232"
Force,Goa,Kamat Force,15.426389,73.898889,7798887480,,santarkar@forcemotors.com,"Nh17, Agassaim, Padribhat Near Police Station, Goa, Goa 403204"
Force,Guntur,Prakrit Motors,16.321275,80.481678,8636532324,,,"Phase-4, Auto Nagar, 100 Ft. Road, Guntur, Andhra Pradesh 522002"
Force,Guwahati,Pibco Enterprises Pvt Ltd,26.15899,91.773549,0361-2340997,,,"G.s. Road, Ananda Nagar, Christan Basti, Guwahati, Assam 781005"
Force,Hoshiarpur,Rustej Automobiles,32.307493,75.601415,7589303022,,,"Near Amber Palace, Tanda Road, Hoshiarpur, Punjab 146001"
Force,Hubli,Desai & Co,15.322699,75.110788,8352250429,,,"Near Shikarkhane Cross, Station Road, Hubli, Karnataka 580020"
Force,Hyderabad,Saboo Force,17.449121,78.437762,04023703333,,,"Mch No.7-1-638 To 643 & 643/1, Beside Esi Hospital, Bhanu Enclave, Hyderabad, Telangana 500038"
Force,Indore,Betala Auto Sales,22.783399,75.908579,8889311176,,,"90, A B Road, Dewas Naka, Lasudia Mori, Indore, Madhya Pradesh 452010"
Force,Jabalpur,Agrawal Motors,23.177957,79.925419,9425412028,,aayushamj@gmail.com,"B.p.complex, Baldeobag, Jeewan Colony, Jabalpur, Madhya Pradesh 482002"
Force,Jaipur,Ess Pee Automotive,26.9112562,75.7832485,01415184049,,,"616, 4th Floor, Ajmer Road, Anchor Mall, Jaipur, Rajasthan 302006"
Force,Jaisalmer,Pragati Motors,26.928569,70.924681,9462247751,,,"Transport Nagar, Pragati Motors, Jaisalmer, Rajasthan 345001"
Force,Jodhpur,Chandra Sons,26.284405,72.990586,0291-2762606,,,"28 A, Pratap Nagar, Near National Handloom, Jodhpur, Rajasthan 342005"
Force,Kannur,G G Motors,11.85612,75.412521,4972835675,,,"Thottada, S. N. College Junction, Kannur, Kerala 670001"
Force,Kolhapur,Amit Force,16.686574,74.273773,2312615044,,,"Opp.mac Donald Restaurant, Adssul Mala, Sharnobatwadi, Kolhapur, Maharashtra 416119"
Force,Kolkata,Usg Automobiles Pvt Ltd,22.553518,88.356573,03322178964,,,"74B, Srachi Towers, Opp - Jora Girja, Ajc Bose Road, Kolkata, West Bengal 700016"
Force,Kozhikode,Pmh Force,11.220129,75.801306,0495-2321775,,,"Door No: 23/1248 B, Pulikkal Building, Thiruvannur(po), Meenchanda Bypass Road, Kozhikode, Kerala 673029"
Force,Latur,Garje Motors,18.409032,76.538512,2382220757,,,"Plot No X-7, Behind PVR Talkies, Midc Area, Latur, Maharashtra 413531"
Force,Ludhiana,Soni Force,30.89656,75.875526,0161-4617880,0161-5050880,deepakj@forcemotors.com,"2581/10, R K Road, Industrial Area A, Near Cheema Chowk, Ludhiana, Punjab 141003"
Force,Mandi,Ram Hari Motors,31.707767,76.935151,01905-246961,,,"V.p.o. Gutkar, Teh. Sadar, Nh 21, Mandi, Himachal Pradesh 175021"
Force,Mangalore,Mangalore Force,12.905741,74.838317,0824-2455250,,,"No. 5-403/1, Nh 66, Kottara Chowki, Oppo. Canara Bank, Mangalore, Karnataka 575006"
Force,Mohali,Bhambra Motors,30.730877,76.704133,1725063600,,,"Plot No. C-55, Phase-6, Industrial Area, Mohali, Punjab 160055"
Force,Mumbai,S P Automotive,19.101803,72.890353,9224233662,022-66848880,pmahal@forcemotors.com,"Shop no.3/4,Plot No.3, Munshi Compouund, Kashimira Mira Road, Western Express Highway , Near Shell Bharat Petrol Pump, Mumbai, Maharashtra 401109"
Force,Mysore,Kshatriya Motors,12.29305,76.658978,8212404555,,,"83/5 G.g. Block, Hootaghalli, Hunsur-mysore Main Road, Mysore, Karnataka 570001"
Force,Nagercoil,Suvetha Force,8.189653,77.420615,9443134474,,,"504A/1A, M.s.road, Vetturni Madam Post, Near Alpha Matriculation Higher Secondary School, Nagercoil, Tamil Nadu 629003"
Force,Nanded,Sushil Motors,19.154888,77.320211,02462-242105,,,"Shop No. 18 to 22, Hingoli Gate, Guru Teg Bahaddur Market, Chikhalwadi Road, Nanded, Maharashtra 431603"
Force,Nashik,Positive Wheels,19.996214,73.80169,7722039152,,,"Plot No. 2, Takoli Road Corner, Sandhu Shopping Complex, Nashik, Maharashtra 422006"
Force,New Delhi,Rohit Autowheels,28.362878,77.314651,9810578768,,,"K – 279, Nh–1, G.t. Karnal Road, Bhghat Singh Park, New Delhi, Delhi 110042"
Force,New Delhi,Tapl Force,28.660724,77.151636,9811999840,,TAPL_RAMA@YAHOO.COM,"33-33 A, Shivaji Marg, Rama Road Industrial Area, Near Haldiram, New Delhi, Delhi 110015"
Force,Pathanamthitta,National Motors,11.256879,75.778766,4682325144,,,"Near College Jn, Kottackal Building, Pathanamthitta, Kerala 689645"
Force,Patiala,H R Automobile,30.344027,76.435312,0175-5012245,,,"Rajpura Road, Hira Bagh, Near Jain Petrol Pump, Patiala, Punjab 147001"
Force,Patna,Shaktee Automobiles,25.609342,85.142568,9693214178,,,"Saguna More, Khagaul Road, Patna, Bihar 801505"
Force,Port Blair,Ag Motors,11.611346,92.745629,03192-260077,,,"Prothpore, Brich Gunj Junction, Port Blair, Andaman and Nicobar 744101"
Force,Pune,Force Motors,18.535544,73.830072,9922912619,,,"Shop No 6, Icc Tower, Senapati Bapat Road, Near Viiraaj Volvo, Pune, Maharashtra 411016"
Force,Pune,Mahalaxmi Motors,18.495133,73.977682,9765561743,,,"No . 36/1C, Pune Solapur Highway, Tal Haveli, Manjari Farm, Pune, Maharashtra 412307"
Force,Shillong,Bomver Force,25.566847,91.856866,3642560194,,,"3rd Mile, Upper Shillong, Bomphyll Market, Shillong, Meghalaya 793014"
Force,Thrissur,Radhia Motors,10.539704,76.192374,4872380655,,,"Punkunnam, Guruvayoor Road, Thrissur, Kerala 680002"
Force,Vadodara,Sayaji Tempo,22.246589,73.188921,8000211318,,,"485/B1/GIDC, Makarpura, Shreeji Nagar, Vadodara, Gujarat 390010"
Force,Vijayawada,Saboo Brothers,16.509673,80.675767,9552558809,,,"54-11-11, Survey No 473 & 482, Plot No 3, Phase 3, Jawahar Autonagar, Off Mahanadu Road, Vijayawada, Andhra Pradesh 520001"
ICML,Agra,Chawla & Co.,27.210375,77.996203,9258073113,,govindchawla1@gmail.com,"421/3, Bye-pass Road, Transport Nagar, Near Saptrishi Apartments, Agra, Uttar Pradesh 282007"
ICML,Ahmedabad,M B Auto Tech,22.995189,72.632118,,,,"GF -8, J.b.r Arcade, Science City Road, Opposte Satyam Complex, Ahmedabad, Gujarat 380016"
ICML,Aligarh,Shanti Motors,27.872621,78.103152,9837237601,,g.fhalini75@gmail.com,"G T Road, Beema Nagar, Sarsol, Soot Mill, Aligarh, Uttar Pradesh 202001"
ICML,Balasore,Akarshan Motors,21.494977,86.942658,9437512600,,,"Bhimpura Chakk,januganj, Opposite Hotel Torrento, Balasore, Orissa 756019"
ICML,Belgaum,Bobati Motors,15.876809,74.508326,9886437515,,bobatimotors@gmail.com,"R.S. No 73/7, Gandhi Nagar Main Road, Sadashiv Nagar, Next To Hp Petrol Pump, Belgaum, Karnataka 590016"
ICML,Varanasi,M P Autovehicles,25.304944,82.984282,9506433333,,icmlvaranasi@mpauto.co.in,"B 38/2 A 3x4, Gopal Vihar Colony,mahmoor Ganj, Near Hotel Natraj, Varanasi, Uttar Pradesh 221001"
ICML,Bhopal,S M Motors,23.253569,77.446742,9301310999,,sanjay@smmotors.in,"1/2, Industrial Area,govindpura, Near M.p.e.b, Bhopal, Madhya Pradesh 462001"
ICML,Bhubaneswar,Maa Bhagabati Auto Centre,20.343188,85.883925,7894011787,,maabhagbatiautocntre@gmail.com,"Plot No-26, Nh-5, Pahal, Behind Jagannath Temple, Bhubaneswar, Orissa 752101"
ICML,Cooch Behar,Maa Durga Transmotives,26.318685,89.513099,9593888877,,durgatransmotives2011@gmail.com,"Kalepar,dawaguri, Near Dawaguri Bazar, Cooch Behar, West Bengal 736156"
ICML,Etawah,Kunti Motors,26.811712,79.00469,9758366333,,dushyanykumar221@gmail.com,"Anand Azad,takiya Azad Gan, Near Deep Takies, Etawah, Uttar Pradesh 206001"
ICML,Gonda,Om Automobiles,27.133991,81.961897,9984848907,,,"Station Road, Janki Nagar, Near Distt. Hospital, Gonda, Uttar Pradesh 271001"
ICML,Gurgaon,Rawa Motor,28.471361,77.001002,9811687333,,,"Sector -9,surya Vihar, Near Petrol Pump, Gurgaon, Haryana 122001"
ICML,Gurgaon,Rawa Motor,28.471361,77.001002,9811687333,,,"Sector -9,surya Vihar, Near Petrol Pump, Gurgaon, Haryana 122001"
ICML,Gwalior,Neha Automobile,26.19066,78.173454,0751-4052222,,neha.automobiles@gmail.com,"Jhansi Road, Lashkar, Opp. Jhansi Road Police Station, Gwalior, Madhya Pradesh 474001"
ICML,Hamirpur(hp),Ashrit Trading And Engeering,31.646477,76.55385,9418093572,,ashrit_international_hamirpur@yahoo.co.in,"Nh-88, V.p.o Bihra, Near Vikas Hotel, Hamirpur(hp), Himachal Pradesh 177001"
ICML,Haridwar,United Auto Garage,29.937423,78.143616,7055500780,,unitedautogarage@rediffmail.com,"Malviya Bhawan, Opposite Rishikul Ground, Rishikul, Haridwar, Uttaranchal 249411"
ICML,Hisar,Ganga Motors,29.279446,75.47984,9467536929,,,"Bagla Road, Adampur, Near Krishna Parnami School, Hisar, Haryana 125112"
ICML,Jaipur,Kuber Motors,26.873954,75.70685,,,,"Shop No 8,9,10, Bansi Tower, Main Ajmer Road, Keshupura, Bhankrota, Near Friends Hotel, Jaipur, Rajasthan 302024"
ICML,Jammu,Shrikul Motors,32.557358,75.049707,9419104929,,shrikul.motors@gmail.com,"G.t Road, Bari Barahmana, Patli Morh, Jammu, Jammu and Kashmir 181133"
ICML,Kanpur,Jain Motors,26.461829,80.299816,9415041267,,jainmotors.knp@rediffmail.com,"64, Kalpi Road, Kalpi, Industrial Estate, Kanpur, Uttar Pradesh 208006"
ICML,Kharar,Yash Motors,30.755408,76.625168,9988447767,,yashmotor7@gmail.com,"Nh--95, Khanpur, Near Kharar Morinda Road, Kharar, Punjab 140301"
ICML,Kolkata,Bobby Automobiles,22.543278,88.379575,9331005604,,bobbyautomobiles@gmail.com,"13/2, Maruti Bagan, Mahendra Roy Lane, Kolkata, West Bengal 700001"
ICML,Kullu,Hadimba Mechanical Works,32.105625,77.13903,9736800539,,amitbodh143@gmail.com,"Nh-21, V.p.o Katrain, Near Kangra Co-operative Bank, Kullu, Himachal Pradesh 175129"
ICML,Lucknow,Classic Cars,26.875244,80.927707,8176001410,,Classic.fiatcars@gmail.com,"Sitapura Road, Dali Ganj Railway Crossing, Beside Central Bank Of India, Lucknow, Uttar Pradesh 226010"
ICML,Madhubani,Sinha Auto Sales & Services,26.353267,86.074046,9771421351,,info@sinhaauto.com,"Ward No-8, Sinha Motor Complex, Suratgunj, Near Madhubani Bus Stand, Madhubani, Bihar 847211"
ICML,Mangalore,Ballal Auto Agencies,12.914142,74.855957,9845155077,,,"Bms Garage Building, Kadri Tollgate, Near Kadri Tollgate, Mangalore, Karnataka 575002"
ICML,Mansa,B.M. Motors,30.01945,75.396915,98887-08990,,,"Ramditta Wala Chowk, Sirsa Road, Mansa, Punjab 151505"
ICML,Muzaffarpur,Kumar Motors,26.101843,85.374473,7759085545,,kumarmotor_rhino@gmail.com,"Nh--28, Khabra, Kiratpur Gurdas, Muzaffarpur, Bihar 842001"
ICML,Patna,Avadi Automobiles,25.604224,85.105405,7488253089,,avadi_automobiles@yahoo.com,"Baily Road, Old Police Check Post, Near Ashiyana More, Patna, Bihar 800014"
ICML,Rajahmundry,Jayalakshmi Motors,16.994689,81.796739,7799776068 ,,,"84-1-2, Nh-16, Aditya Nagar, Beside Ongc Base Complex, Rajahmundry, Andhra Pradesh 533101"
ICML,Ranchi,P S I Automobiles,23.372099,85.351945,9308441835,,psiautomobiles@gmail.com,"19, Industrial Area, Kokar, Near Bhaskar Steel, Ranchi, Jharkhand 834001"
ICML,Rewa,Gautam Motors,24.540475,81.315605,9425424638,,,"16/805, Captan Complex, Nh-7, Urrahat, Near Hotel Satnam Intl, Rewa, Madhya Pradesh 486001"
ICML,Rohtak,Durge Motors,28.916509,76.565188,7206007777,,durge.motors.icml@gmail.com,"Jind Road, Sector-7, Near Sukhpura Chowk, Rohtak, Haryana 124001"
ICML,Shahbad,Universal Motors,30.237882,76.850994,9729315222,,unimotors@yahoo.com,"N H-i, Vill. Mohri, P.o Sambhalkhi, Near Modern Institute, Shahbad, Haryana 136135"
ICML,Shimla,Jay Kays,31.034475,77.109877,9816318080,,,"Plot no. 104 D, Industrial Area, Shoghi, Near Shimla Hills Offerings Pvt Ltd, Shimla, Himachal Pradesh 171219"
ICML,Siliguri,Rosy Automobiles,26.70842,88.426914,9733156619,,rosyauto_icml@yahoo.in,"Darjeeling More, Shiv Nagar, Opposite Hotel Himalayan Regency, Siliguri, West Bengal 743003"
ICML,Srinagar,Extreme Automobiles,34.083658,74.797368,8491000453,,,"Athwajan Byepass, Nh-1, Near Delhi Public School, Srinagar, Jammu and Kashmir 191101"
ICML,Udaipur,Riddhi Motors,24.615653,73.705387,9649222296,0294-2810537,riddhi.motors@yahoo.com,"Nh-8,bhuwana Bye Pass,rto Road, Bhuwana, Near Everest Resort, Udaipur, Rajasthan 313004"
ICML,Varanasi,M P Autovehicles,25.304944,82.984282,9506433333,,icmlvaranasi@mpauto.co.in,"B 38/2 A 3x4, Gopal Vihar Colony,mahmoor Ganj, Near Hotel Natraj, Varanasi, Uttar Pradesh 221001"
ICML,Visakhapatnam,Madhava Premier,17.743866,83.259211,9246617999,,madhava.premier@gmail.com,"Door No.39-14-16, Nh--5, Madhavadhra, Birla Junction, Visakhapatnam, Andhra Pradesh 530031"
ICML,Visakhapatnam,Madhava Premier,17.743866,83.259211,9246617999,,madhava.premier@gmail.com,"Door No.39-14-16, Nh--5, Madhavadhra, Birla Junction, Visakhapatnam, Andhra Pradesh 530031"
Isuzu,Ahmedabad,Torque Isuzu,23.041263,72.513812,8929414230,,Reception.ahm@torqueisuzu.in,"GF-1, Shree Panchdhara Complex, S G Highway, Bodakdev, Near Hotel Grand Bhagwati,near Gnst Tower, Ahmedabad, Gujarat 380001"
Isuzu,Ahmedabad,Torque Isuzu,22.951183,72.592096,+918141555533,,,"Adarsh Industrial estate, Narol Aslali Highway, Narol, Opp. GEB Store, Ahmedabad, Gujarat 382405"
Isuzu,Anantapur,Sasya Automotives,14.66389,77.580417,+917989739304,,,"SY NO 143 1G 2B, Rudraramappa Panchayath, NH 44, Anantapur, Rajamamsa Galaxy, Anantapur, Andhra Pradesh 515001"
Isuzu,Bangalore,KHT Agencies,12.962625,77.591393,9844771111,,sales@khtagencies.com ,"No 10, Subbaiah Circle, Mission Road, Bangalore, Karnataka 560027"
Isuzu,Bangalore,Trident Isuzu,12.969191,77.701257,9743786723,,,"17/4C, Hosur Main Road, Rupenaagrahara, Bangalore, Karnataka 560037"
Isuzu,Bangalore,KHT Agencies,12.962625,77.591393,9844771111,,sales@khtagencies.com ,"No 10, Subbaiah Circle, Mission Road, Bangalore, Karnataka 560027"
Isuzu,Bangalore,Trident Isuzu,12.969191,77.701257,9743786723,,,"17/4C, Hosur Main Road, Rupenaagrahara, Bangalore, Karnataka 560037"
Isuzu,Bhuj,Torque Isuzu,23.226213,69.635661,8929824320,,sales@torqueisuzu.in,"4, Mirjapur Highway, Uma Park Society, Bhuj, Gujarat 370001"
Isuzu,Kozhikode,Manikandan Isuzu,11.244257,75.780752,9072327788 ,,," Kundaythodu,  Cheruvanoor, Bavukka’s Square, Kozhikode, Kerala 673001"
Isuzu,Chandigarh,Krishna Isuzu,30.703895,76.802357,7375004831,,aarti.attri@isuzu-krishna.com,"Plot No 15, Ind. Area Phase-1, Near Elante Mall, Chandigarh, Chandigarh 160002"
Isuzu,Chennai,Kun Isuzu,13.095764,80.17259,9094440005,,,"B14, 1st street, Ambattur Industrial Area, 2nd sector, Chennai, Tamil Nadu 600058"
Isuzu,Chennai,Kun Isuzu,13.033142,80.243228,919094440005,,,"No.640, Annasalai Nandanam, Sathguru Complex, Chennai, Tamil Nadu 600035"
Isuzu,Coimbatore,Kun Isuzu - Coimbatore,10.996626,77.005373,8220046447,,,"SF 519, Avinashi Road, Mudhalipalayam Pirivu Arasur Post, Sidha Steel Campus, Coimbatore, Tamil Nadu 641408"
Isuzu,New Delhi,Paramount Isuzu,28.663001,77.152739,7240430990,,,"71/4, Main Najafgarh Road, Mothi Nagar, Near By Galaxy Toyota, New Delhi, Delhi 110015"
Isuzu,New Delhi,Paramount Isuzu,28.506966,77.300099, +91 9599483123,,,"Mathura Road, Delhi, A-10 Mohan Co-operative Industrial Estate, New Delhi, Delhi 110044"
Isuzu,Ernakulam,Manikandan Isuzu,9.965046,76.318587,8589812444,,,"Door No. C.C. 29/1394, Vyttila, Near Junction, Ernakulam, Kerala 682019"
Isuzu,Faridabad,Paramount Isuzu,28.428269,77.308683,7375879752,,,"15/2, Metro Station Sec- 28, Mathura Road, Faridabad, Haryana 121008"
Isuzu,Gurgaon,Paramount Isuzu,28.428689,77.036884,7240454075,,,"Sohna Road, Netaji Subash Chowk, In  Vijaya Forum Mall, Gurgaon, Haryana 122003"
Isuzu,Gurgaon,Paramount Isuzu,28.428689,77.036884,7240454075,,,"Sohna Road, Netaji Subash Chowk, In  Vijaya Forum Mall, Gurgaon, Haryana 122003"
Isuzu,Hyderabad,Mahavir Isuzu,17.441345,78.388129,7375006275,,,"H No 1-88/1, Hi-tech City Main Road, Madhapur, Opp Govt High School, Hyderabad, Telangana 500082"
Isuzu,Hyderabad,Mahavir Isuzu,17.44643,78.476064,+91 7799642004,,,"1-8-321, Patigadda Main Road, Begumpet, Near Police Lines, Hyderabad, Telangana 500016"
Isuzu,Indore,Patwa Isuzu,22.782237,75.90388,9826032312,,patwamotorospvtltd@gmail.com,"50/3, Dewas Naka, Agra Bombay Road, Indore, Madhya Pradesh 452102"
Isuzu,Jaipur,Khushi Isuzu,26.878697,75.769897,"9784592226,  9929711138",,,"1A & 28A, Karoli Bagh, Gopalpura Bypass, Near Gurjar Ki Thadi Underpass, Jaipur, Rajasthan 302019"
Isuzu,Jaipur,Khushi Isuzu,26.840822,75.793647,+91 9799330222,,,"Plot No.5, Tonk Road, Sitabari, Durga Vihar, Jaipur, Rajasthan 302018"
Isuzu,Jalandhar,Krishna Isuzu,31.275282,75.678391,7307720000,,,"Village Khajurla, G.T road, Phagwara, Opp haveli Restuarent, Jalandhar, Punjab 144001"
Isuzu,Jodhpur,Geeta Isuzu,26.242636,73014760.0,9549890489,,,"Plot No - 27, HI Area Phase II, Pali Highway, Basni, Bhagat Ki Kothi(extn)  NH-65, Jodhpur, Rajasthan 342001"
Isuzu,Kanpur,Speed Isuzu,26.461886,80.303458,7375087282,,,"123/477, Gadarianpurwa, Fazalganj, Shastri Nagar, Fazalganj Industrial Estate, Kanpur, Uttar Pradesh 208012"
Isuzu,Karnal,Paramount Isuzu,28.746748,77.151748,7375800130,,,"117/8, GT Karnal Road, Village Kambpura, Karnal, Haryana 132001"
Isuzu,Kolkata,Mohan Motors Isuzu,22.621887,88.455532,"8585048491, 8585048486",, gm@isuzu-kolkata.com,"Plot II, D/22 Action Area II, Ecosuite Business Tower, New Town Street No 676 and 775, Rajarhat, Town Street, Kolkata, West Bengal 700103"
Isuzu,Kozhikode,Manikandan Isuzu,11.244257,75.780752,9072327788 ,,," Kundaythodu,  Cheruvanoor, Bavukka’s Square, Kozhikode, Kerala 673001"
Isuzu,Kurnool,Sasya Automotives,15.849744,78.004482,+91 8886130777,,,"D No 96/3-157-3, SY No 133/1A and 131/1, NH-44 Road, Kurnool, Near Eenadu Office, Kurnool, Andhra Pradesh 518003"
Isuzu,Lucknow,Speed Isuzu,26.877822,81.039606,7375087181,,,"12.2 Kms, Faizabad Road, Chinhat, Gomti Nagar, Lucknow, Uttar Pradesh 227105"
Isuzu,Ludhiana,Krishna Isuzu,30.866935,75.929476,8558840744,,,"G.t. Road, Dhandari Khurd, Near Prem Nagar, Ludhiana, Punjab 141014"
Isuzu,Madurai,AR.A.S.Isuzu,9.835879,78.033808,9894260101,,,"Plot No 28, Kappalur, Industrial Estate, Madurai, Tamil Nadu 625008"
Isuzu,Mangalore,Cauvery Isuzu,12.915856,74.834484,+91 9845061202,,,"Div Dev building, Div Dev building, Bangra Kulur, 4th Mile, Mangalore, Karnataka 575013"
Isuzu,Mohali,Krishna Automobiles,30.661314,76.733724,7305520000,,aarti.attri@isuzu-krishna.com,"Plot no.3, Krishna Isuzu, Sec 82, SAS Nagar, JLPL Industrial Area, Aerocity- Airport Road, Mohali, Punjab 160055"
Isuzu,Nagpur,Girnar Isuzu,21.134369,79.003841,7375097686,,girnarcars@gmail.com,"E-2, Hingana Road, MIDC, Nagpur, Maharashtra 440013"
Isuzu,Navi Mumbai,J M D Isuzu,19.060624,73.013962,9987898898,,sales@jmdisuzu.com,"Plot no 4,5&6, Showroom No 8,9 & 10, Unit No 13,14,15,sector 30 ,sanpada,vashi, Prithvi Park, Navi Mumbai, Maharashtra 400705"
Isuzu,Nellore,Rke Isuzu,14.399849,79.947572,8885070081,,,"Door No -  26-2/2147/2, Shankaran Colony, Vedayapallem, GNT Road, Nellore, Andhra Pradesh 524004"
Isuzu,New Delhi,Paramount Isuzu,28.663001,77.152739,7240430990,,,"71/4, Main Najafgarh Road, Mothi Nagar, Near By Galaxy Toyota, New Delhi, Delhi 110015"
Isuzu,New Delhi,Paramount Isuzu,28.506966,77.300099, +91 9599483123,,,"Mathura Road, Delhi, A-10 Mohan Co-operative Industrial Estate, New Delhi, Delhi 110044"
Isuzu,Noida,Select Isuzu,28.631177,77.380135,7375004632,,,"Sector-63, H-8, Noida, Uttar Pradesh 201301"
Isuzu,Phagwara,Krishna Isuzu,31.224247,75.768858,8558840745,,,"Krishna Automobiles Pvt. Ltd, G.t Road, Village Khajurla, Phagwara, Opp Haveli Restuarent, Phagwara, Punjab 144401"
Isuzu,Pune,Jmd Isuzu,18.626713,73.743239,+91 9867551841,,sales@jmdisuzu.com,"Showroom No. 09, Senapati Bapat Road, Pune, ICC Trade Towe, Pune, Maharashtra 411016"
Isuzu,Pune,Jmd Isuzu,18.626713,73.743239,+91 7738150457,,sales@jmdisuzu.com,"Sr. No 132/2A/3A, Mumbai-Pune Road, Tathawade, Near Royal Garden, Pune, Maharashtra 411033"
Isuzu,Rajahmundry,Mahavir Isuzu,17.023209,81.799202,9642130004,,,"D. No. 69-31-14,  RTO Office Road, Opp. FCI Godowns, Rajahmundry, Andhra Pradesh 533101"
Isuzu,Rajkot,Torque Isuzu,22.208087,70.801426,8929824320,,,"Plot No. 24, Gondal Highway, Kangshiyali, Near Kishan Petrol Pump, Rajkot, Gujarat 360002"
Isuzu,Ranga reddy,Mahavir Isuzu,17.369251,78.553802,918297370004,,,"11-13-429, LB Nagar, Alkapuri Colony, Ranga reddy, Telangana 500075"
Isuzu,Siliguri,Mohan Motors,26.710437,88.417798,9007013782,,,"Burdwan Road, Ward 4, Mahananda Para, Opp. Rishi Bhawan, Siliguri, West Bengal 734001"
Isuzu,Thiruvananthapuram,Evm Isuzu,8.435735,76.957931,7558889151,,,"T C 65/2153 1, Nh Bypass Road, Trivandrum, Venkara Opp Durgha Devi Temple, Thiruvananthapuram, Kerala 695027"
Isuzu,Tirupati,R.K.E Automotive,13.637312,79.421183,9393620008,,,"No.11-1/1, Renigunta Road, Bhavani Nagar, Near Ttd Arch, Tirupati, Andhra Pradesh 517501"
Isuzu,Tirupati,R.k.e Isuzu,13.630281,79.445608,+91 9618887008,,,"Site No: B1,D1, Renigunta Estate, Renigunta Road, Tirupati, Near HP Petrol Pump, Tirupati, Andhra Pradesh 517501"
Isuzu,Thiruvananthapuram,Evm Isuzu,8.435735,76.957931,7558889151,,,"T C 65/2153 1, Nh Bypass Road, Trivandrum, Venkara Opp Durgha Devi Temple, Thiruvananthapuram, Kerala 695027"
Isuzu,Vadodara,Torque Isuzu,22.334195,73.174794,8929414230,,,"P O Fertilizer, Chhani Road N H No 8, OPP. GSFC Nagar Gate, Vadodara, Gujarat 391750"
Isuzu,Vijayawada,Mahavir Isuzu,16.523158,80.687748,9160333004,,,"D.No. 4-122, GST road, Prasadampadu, NH-5, Vijayawada, Andhra Pradesh 521108"
Isuzu,Visakhapatnam,Mahavir Isuzu,17.739005,83.263868,9642130004,,saikrishnak@mahavirisuzu.com,"38/22/158 , C-20, Jhabakh Auto Pvt. Ltd, Industrial Estate, Gavara Kanchara Palem, Visakhapatnam, Andhra Pradesh 530035"
Isuzu,Visakhapatnam,Mahavir Isuzu,17.739005,83.263868,9642130004,,saikrishnak@mahavirisuzu.com,"38/22/158 , C-20, Jhabakh Auto Pvt. Ltd, Industrial Estate, Gavara Kanchara Palem, Visakhapatnam, Andhra Pradesh 530035"
Jaguar,Ahmedabad,Cargo Motors,22.997124,72.498506,9978442691,079-26873126,cmpljtlws@cargomotors.co.in,"Sarkhej - Gandhinagar Hwy, Bodakdev, Opp. Rajpath Club, Ahmedabad, Gujarat 380015"
Jaguar,Aurangabad,Satish Motors,19.877085,75.372418,8551047777,,,"G - 19/20, Chikalthana, Prozone Mall, Aurangabad, Maharashtra 423703"
Jaguar,Aurangabad,Satish Motors,19.817848,75.241068,912406674111,,,"Gut No 135, Waladgaon, Waluj, Opp Bajaj Auto Limited, Aurangabad, Maharashtra 431134"
Jaguar,Bangalore,Marqland Motors,12.910912,77.627036,9686660235,,,"32/5, Hosur Road, Roopen Agrahara, Bommanahalli, Opp. Royal Oak, Bangalore, Karnataka 560068"
Jaguar,Bangalore,Marqland Motors,12.910912,77.627036,9686660235,,,"32/5, Hosur Road, Roopen Agrahara, Bommanahalli, Opp. Royal Oak, Bangalore, Karnataka 560068"
Jaguar,Chandigarh,Dada Motors,30.745427,76.785072,9876039026,,Deepak.k@dadamoter.com,"Showroom No. 8, Sec-17, Hotel Taj Shopping Arcade, Chandigarh, Chandigarh 160017"
Jaguar,Chennai,V S T Grandeur,13.065167,80.257132,7375006071,,sales@vstgrandeur.com,"A Wing  New No. 62, Old No.31 & 32, Ground Floor, Ethiraj Salai, Egmore, Kgn Towers, Chennai, Tamil Nadu 600008"
Jaguar,Kochi,Muthoot Motors,9.982195,76.316374,8129999808,,jaguar@muthootjlr.com,"JLR Division, Kundanoor, Maradu, P.O, NH-47 Bye Pass, Kochi, Kerala 682001"
Jaguar,Coimbatore,V S T Grandeur,10.996301,77.062015,7375093040,,info.cbe@vstgrandeur.com,"145-1c-1, L&t Bye-pass Road, Oddar Palayam, Near Vijaya Vidhyalaya Matriculation School, Coimbatore, Tamil Nadu 641016"
Jaguar,Cuttack,Empreo Prestige,20.407779,85.879371,7735477771,,sourav.sahu@empreoprestige.com,"Bhanpur, Pratapnagari, P.O., Cuttack, Orissa 753011"
Jaguar,Cuttack,Lexus Motors,20.462521,85.88299,7894432002,,jlr@lexusmoters.in,"N.h.5, Cuttack-bhubaneshwar Road, Pratapnagari P.o. Bhanpur, Siba Bazar, Cuttack, Orissa 753011"
Jaguar,New Delhi,A M P Motors,28.533338,77.285618,7375880517,,,"A-5, Mathura Road, Mohan Cooperative Industrial Estate, Block E, New Delhi, Delhi 110044"
Jaguar,New Delhi,Amp Motors,28.661854,77.152519,7375880637,,abhi.sharma@ampmotors.in,"31, Moti Nagar, Shivaji Marg, New Delhi, Delhi 110015"
Jaguar,Guntur,Lakshmi JLR,16.444309,80.592229,7997991369,,ceo@lakshmijlr.co.in,"Sy. No 397/1, Atmakuru Village, Mangalagiri, Guntur, Andhra Pradesh 522502"
Jaguar,Gurgaon,A M P Motors,28.464845,77.065222,7375880206,,,"SCO 316, Sector 29, Gymkhana Club, Gurgaon, Haryana 122001"
Jaguar,Gurgaon,A M P Motors,28.464845,77.065222,7375880206,,,"SCO 316, Sector 29, Gymkhana Club, Gurgaon, Haryana 122001"
Jaguar,Hyderabad,Pride Motors,17.4299,78.410316,040-23606148,,mereddy_suresh@rediffmail.com,"Plot No. 461, Road No.36, Jubilee Hills, Odyssey Mall, Hyderabad, Telangana 500033"
Jaguar,Indore,Sanghi Bros,22.770981,75.907993,8889912691,,,"Mr11, Mangal Compound, Ring Road, Gram-pipliyakumar Devas Naka, Lasudia Mori, Indore, Madhya Pradesh 452010"
Jaguar,Jaipur,Amp Motors,26.907966,75.74092,7375880256,,,"Ashram Marg, Near Jaipur Marriott, Jaipur, Rajasthan 302015"
Jaguar,Karnal,Malwa Automotives,29.649719,76.990048,8295511111,,,"118/5 Km Stone, Village Kambopura, Near Cafe Coffee Day, Karnal, Haryana 132001"
Jaguar,Kochi,Muthoot Motors,9.982195,76.316374,8129999808,,jaguar@muthootjlr.com,"JLR Division, Kundanoor, Maradu, P.O, NH-47 Bye Pass, Kochi, Kerala 682001"
Jaguar,Kolkata,Lexus Motors,22.550432,88.36266,9831010982,,jlrdesk@lexusmoter.in,"41a, A J C Bose Road, Mullick Bazar, Near Nonapukur Tram Depot, Kolkata, West Bengal 700017"
Jaguar,Kolkata,Lexus Motors,22.620589,88.461061,,,,"IID/13–14, Automall, Maj. Arterial Road, Kolkata, Action Ar Ii, Kolkata, West Bengal 700141"
Jaguar,Lucknow,VISHAL CARS,26.766668,80.873454,7930296300,,,"C-1/19 TO C-1/22, Amar Shaheed Path, Transport Nagar Phase-2, Lucknow, Uttar Pradesh 226012"
Jaguar,Ludhiana,Dada Motors,30.9003452,75.8566733,9814026262,,info@dadamotors.com,"Savitri -1, G.t Road, Parbhat Nagar, Sahibjada Ajit Singh Nagar, Dholewal Chowk, Ludhiana, Punjab 141120"
Jaguar,Ludhiana,Dada Motors,30.842624,75.975335,911616431000,,,"G.T. Road, Sahnewal, Opp. Govt Girls Sen Sec School, Ludhiana, Punjab 141120"
Jaguar,Mangalore,Marqland,12.867514,74.905696,8242276399,,naveen.philip@gmail.com,"Popular Autoworks Private Limited, Kannur Village, 22/1A,22/1C, 22/2A, Mangalore, Karnataka 575007"
Jaguar,Mumbai,"Modi Motors Jaguar Land Rover, Worli",18.9905,72.81367,7375811286,022-67478090,,"Ceejay House Ground Floor, Dr Annie Besant Road, Worli, Shiv Sagar Estate, Mumbai, Maharashtra 400018"
Jaguar,Mumbai,Navnit Motors,18.990634,72.813395,022-67478080,,sharad@navnitmotors.com,"CEEJAY HOUSE, R ANNIE BESANT RD, WORLI, SHIVSAGAR ESTATE, Mumbai, Maharashtra 400018"
Jaguar,Mumbai,Navnit Motors,19.138451,72.832092,912267000000,,,"Fortune Terraces, New Link Road, Mumbai, Opp. Citi Mall, Mumbai, Maharashtra 400053"
Jaguar,Nagpur,Anand Techno Marketing  Pvt. Ltd.,21.115976,79.01049,7375802801,,harshal.kohadkar@anandgroup.net.co,"D-3, Anand Techno Marketing  Pvt. Ltd, MIDC Hingna, Near Wadi Toll Naka, Nagpur, Maharashtra 440028"
Jaguar,New Delhi,A M P Motors,28.533338,77.285618,7375880517,,,"A-5, Mathura Road, Mohan Cooperative Industrial Estate, Block E, New Delhi, Delhi 110044"
Jaguar,New Delhi,Amp Motors,28.661854,77.152519,7375880637,,abhi.sharma@ampmotors.in,"31, Moti Nagar, Shivaji Marg, New Delhi, Delhi 110015"
Jaguar,Noida,Shiva Motocorp,28.592359,77.322151,7375006526,,amitgarg@shivamotors.in,"A UNIT OF NARNOLI APPARELS, SECTOR - 5, P L, A - 108, Noida, Uttar Pradesh 201301"
Jaguar,Pune,Ace Perkins,18.326021,73.514999,7375811324,,sales@aceperkins.in,"Block No. 1, Godrej Eternia, Pune Mumbai Road, Wakdewadi, Next To Shoppers Stop, Pune, Maharashtra 411005"
Jaguar,Raipur,Satyam Balajee,21.251384,81.629641,8518887087,,jlr@satyambalaji.com,"National Highway No 6, Ring Road No 1, Tatibandh, Janta Colony, Raipur, Chhattisgarh 492099"
Jaguar,Surat,Navjivan Motors,21.145179,72.757086,,,,"R.S.NO.9/1 ,PLOT NO.3, MAGDALLA, Opp Central Mall ,Near Harihar Party  Plot, Surat, Gujarat 395007"
Jeep,Agra,Kalyan Automart Private Limited,27.219746,77.933081,9837045971,,divesh@kalyangroup.com,"Near Mango Hotel, Bye Pass Road, Sikandara, Opposite to Bhagwati Dhaba, Agra, Uttar Pradesh 282007"
Jeep,Ahmedabad,Concept Motorcar,22.99211,72.535587,,,,"Survey No-45/3, Sarkhej-Narol Cross Road, Maktampur, Opp Vishala Hotel, Ahmedabad, Gujarat 380055"
Jeep,Ahmedabad,Concept Motors,23.075537,72.526103,7878606000,,sales@conceptjeep.in,"D-01, Block – D, S.g.highway, Opp.kargil Petrol Pump, Ganesh Meridian, Ahmedabad, Gujarat 380060"
Jeep,Ajmer,Nidhi Kamal Company,26.473213,74.652047,,,,"Khasra No. 530, Gayatri Auto Packers and Movers, Parbatpura Byepass, Ajmer, Opposite to Maharaja Restaurant, Ajmer, Rajasthan 305002"
Jeep,Allahabad,Eldee Motors Pvt Ltd,25.454342,81.835017,9336908731,,eldee.sm.fca@gmail.com,"Civil Lines, 2 Sardar Patel Marg, Allahabad, Uttar Pradesh 211001"
Jeep,Amritsar,Novelty Jeep,31.603622,74.936137,8288018861,,noveltyjeep@noveltygroup.in,"Novelty Jeep, G.T. Road, Near Amritsar Gate, Amritsar, Punjab 143022"
Jeep,Aurangabad,Varada Vehicle Pvt Ltd - Showroom,19.876851,75.371266,9850533366,,gmsales@varada-fca.com,"P80/D5, C/o Prozone Mall, Chikalthana, API compound, Aurangabad, Maharashtra 431006"
Jeep,Bangalore,KHT Agencies,13.023054,77.554995,9035073000,,admin@khtprime.com,"92/93, Inner Ring road, Koramangala, Amar Jyothi Layout, Bangalore, Karnataka 560071"
Jeep,Bangalore,KHT Agencies,13.023688,77.548316,8494911115,,,"Old No.15A, New No.44, Industrial Suburb Service Road, Industrial Suburb Service Road, Yeshwantpur, Opposite to shell petrol bunk, Bangalore, Karnataka 560022"
Jeep,Bangalore,Mps Motors,12.898704,77.576385,08046466600,,sales@mps-fca.com,"386/1/383/362/70, GR Grand Plaza, Kanakapura Main Road, Jaraganahalli Village, Near JP Nagar Metro Station, Bangalore, Karnataka 560078"
Jeep,Bangalore,Mps Motors,12.859409,77.652498,,,,"Survery No. 4, Panchayat Khata No. 62-4, Hosur Road, Beratena Agrahara Village, Begur Hobli, Near Electronic City, Lavakusha Nagar, Bangalore, Karnataka 560100"
Jeep,Bangalore,P P S Jeep,12.904986,77.57354,7997988777,,salesmanager.blr@mps-fca.com,"386/1/383/362/70, G R Grand Plaza, Kanakapura Main Road, Jaraganahalli Village, Near JP Nagar Metro Station, Bangalore, Karnataka 560078"
Jeep,Belgaum,Sutaria Automobiles,15.883574,74.493302,7026636127,,sutariafiat@gmail.com,"Plot # 1M , Bauxite Road, Kangrali Industrial Area, Belgaum, Karnataka 590010"
Jeep,Bangalore,KHT Agencies,13.023054,77.554995,9035073000,,admin@khtprime.com,"92/93, Inner Ring road, Koramangala, Amar Jyothi Layout, Bangalore, Karnataka 560071"
Jeep,Bangalore,KHT Agencies,13.023688,77.548316,8494911115,,,"Old No.15A, New No.44, Industrial Suburb Service Road, Industrial Suburb Service Road, Yeshwantpur, Opposite to shell petrol bunk, Bangalore, Karnataka 560022"
Jeep,Bangalore,Mps Motors,12.898704,77.576385,08046466600,,sales@mps-fca.com,"386/1/383/362/70, GR Grand Plaza, Kanakapura Main Road, Jaraganahalli Village, Near JP Nagar Metro Station, Bangalore, Karnataka 560078"
Jeep,Bangalore,Mps Motors,12.859409,77.652498,,,,"Survery No. 4, Panchayat Khata No. 62-4, Hosur Road, Beratena Agrahara Village, Begur Hobli, Near Electronic City, Lavakusha Nagar, Bangalore, Karnataka 560100"
Jeep,Bangalore,P P S Jeep,12.904986,77.57354,7997988777,,salesmanager.blr@mps-fca.com,"386/1/383/362/70, G R Grand Plaza, Kanakapura Main Road, Jaraganahalli Village, Near JP Nagar Metro Station, Bangalore, Karnataka 560078"
Jeep,Bhubaneswar,Shree Bharat Motors,20.333267,85.883125,8599011582,,,"NH-5, Pahal, Bhubaneswar, Orissa 752101"
Jeep,Kozhikode,Kvr Motor Cars,11.28103,75.770104,9605733311,,gm@kvrfiat.com,"Tellicherry Road, Thazhe Chovva, Near South railway Gate, Kozhikode, Kerala 673005"
Jeep,Kozhikode,Kvr Motors,11.280108,75.771606,9605733311,,shinoj.pn@kvr-fca.com,"1/3446 F, West Hill (PO), Calicut, Near Kanakalaya Bank, Chakkorathukulam, Kozhikode, Kerala 673005"
Jeep,Chandigarh,Kas Cars Private Limited,30.716752,76.702056,7710619991,,arun.kumar@kascars.in,"Area Phase-I, Plot No-171, Industrial, Chandigarh, Chandigarh 160002"
Jeep,Chandigarh,Wsl Automobile,30.71675,76.702055,7375006409,,gm@wheelsfiat.com,"Plot No. D-144, Industrial Area Phase - 7, Near Competent, Chandigarh, Chandigarh 160059"
Jeep,Chennai,RDC Automobile,12.954568,80.24253, 7073685333,,rdcautomobile@jeepindia.com,"No: 144, Perungudi, Old Mahabalipuram Road, Chennai, Tamil Nadu 600096"
Jeep,Chennai,Ramkay Fca,13.05378,80.249416,9940177000,,Jeep@ramkay-fca.com,"Old No. 179 New No. 8, Nungambakkam, Kodambakkam High Road, Chennai, Tamil Nadu 600034"
Jeep,Kochi,Gma Pinnacle Automotives,10.049753,76.31631,7559997799,,crm@pinnaclejeep.com,"Door No.601,14/601, Choornikkara Grama Panchayath, NH 47, PO Thaikkattukara, Aluva, Opposite to Muttam Metro Station, Kochi, Kerala 683591"
Jeep,Coimbatore,Srt Fiat,11.033088,77.028154,7307835029,,agm@srtgroup.co.in,"1151A, Mettupalayam Road, Saibaba Kovi, Opp. Ganga Hospital, Coimbatore, Tamil Nadu 641101"
Jeep,Dehradun,LSC Autowheels,30.300105,78.007916,8954800123 ,,asm@lsc-fca.com,"Mohabewala Industrial Area, Saharanpur Road, Post office Clement Town, Opp. Manav Kendra, Dehradun, Uttaranchal 248002"
Jeep,New Delhi,Landmark Lifestyle Cars,28.50917,77.298692,7375003424,,purvi.g@landmarkjeep.in,"D5, Block No. B1, Mathura Road, Mohan Cooperative Industrial Area, New Delhi, Delhi 110044"
Jeep,New Delhi,Landmark Lifestyle Cars,28.509809,77.081508,7375003424,,purvi.g@landmarkjeep.in,"Plot No.10A, Motinagar, Shivaji Marg, New Delhi, Delhi 110015"
Jeep,Ernakulam,Gma Pinnacle Automotives,10.088056,76.343622,7559997777,,sales@pinnaclejeep.com,"NH-47, Thaikkattukara-P O, Kochi, Opp: Metro Rail Yard - Muttom, Ernakulam, Kerala 683106"
Jeep,Ernakulam,Gma Pinnacle Automotives,9.94308,76.317996,,,,"Door No. 2/282, NH 47 Bypass, Ernakulam, Maradu P.O, Kundannur, Ernakulam, Kerala 682304"
Jeep,Ernakulam,Gma Pinnacle Automotives,9.989191,76.570592,,,,"Door No 614/E, Molayil Arcade, Cochin, Kadathy, Muvattupuzha, Ernakulam, Kerala 686672"
Jeep,Gurgaon,Landmark Lifestyle Cars,28.478761,77.097048,7375003424,,purvi.g@landmarkjeep.in,"G-4, B-1, M G Road, Ground Floor, Solitaire Plaza, Gurgaon, Haryana 122002"
Jeep,Gurgaon,Landmark Lifestyle Cars,28.478761,77.097048,7375003424,,purvi.g@landmarkjeep.in,"G-4, B-1, M G Road, Ground Floor, Solitaire Plaza, Gurgaon, Haryana 122002"
Jeep,Guwahati,Mahesh Motors,26.159697,91.782208,7002900266,,maheshfiat@outlook.com,"G-1 , Sohum Residency,  Baruah Road, Ground Floor,  R.G, Guwahati, Assam 781014"
Jeep,Hisar,Paramount Cars India Private Limited,29.131702,75.76072,8882501515,,vivekahluwalia@jsbgroup.in,"Shyam Complex, Vidyut Nagar, Opposite Jindal Marg, Hisar, Haryana 125005"
Jeep,Hubli,Bellad Enterprises Private Limited,15.368246,75.120685,8362218337,,sales1@bellad-fca.com,"P.B. Road, Opp. NGEF, Rayapur, Hubli, Karnataka 580025"
Jeep,Hyderabad,Pride Jeep And Fiat,17.428398,78.493112,8498900900,,sm@pridefca.com,"Plot No-240, Nirvana, Road No-36, Jubilee Hills, Jubliee check post, Hyderabad, Telangana 500033"
Jeep,Imphal,N.r Traders,24.746838,93.935352,8974008839,,nr_traders2010@yahoo.in,"Thongju Part II, Pheijaleitong, Canchipur, East District, Singjamei, Imphal, Manipur 795003"
Jeep,Indore,Satguru Engitech,22.69071,75.865556,7771010422,,satguru.fca@gmail.com,"10,  A. B. Road,  Vishnu Puri,  Near Medisquare Hospital, Indore, Madhya Pradesh 452001"
Jeep,Jabalpur,Khatwani Motors,23.15659,79.920242,7970111110,,info@khatwani-fca.com,"1142, Madan Mahal, Nagpur Main Road, Near Gulati Pump, Opposite Axis Bank - Bhasin Acropolis, Jabalpur, Madhya Pradesh 482001"
Jeep,Jaipur,Akar Cars,26.987049,75.777483,7374002049,,akarmotors@rediffmail.com,"B-123A, Road No.9, Vishwakarma Industrial Area, Jaipur, Rajasthan 302016"
Jeep,Jaipur,Akar Cars Private Limited,26.920287,75.789682,,,,"S-1, Fathe Singh Ki Dharamshala, Kalward Scheme, Station Road, Gopal Bari, Jaipur, Rajasthan 302001"
Jeep,Jalandhar,Goyal Jeep,31.277038,75.678497,8287688853,,salesjeep.jal@gitanshgroup.com,"G.T Road, Khajurla, Near Haveli, Jalandhar, Punjab 144418"
Jeep,Jammu,Gulhati Cars,32.674944,74.889228,7375006229,,crm@nationalfiat.com,"NH 1 A, Greater Kailash Chowk, Opposite Utsav Banquet Hall, Jammu, Jammu and Kashmir 180011"
Jeep,Jamshedpur,Titania Auto Cars,22.815931,86.097243,6207900669,,info@titania-fca.com,"229, Usha More, Main Road, PO: Gamharia, Khata No.28 , Saraikela Karshawan, Jamshedpur, Jharkhand 832108"
Jeep,Jodhpur,P C Bhandari Cars,26.236684,73.019484,9680518874,,chirbhu@gmail.com,"E.329/A,  Basni 2nd Phase, Opposite AIIMS, Jodhpur, Rajasthan 342006"
Jeep,Kanpur,Smart Motors,26.48255,80.343143,7897995060,,"smartmotorsfiat@outlook.com, smartmotorsshowroom@hotmail.com","Plot No. 01, 14/75, Civil Lines, Gopal Vihar, Kanpur, Uttar Pradesh 208001"
Jeep,Karnal,Rahul Jeep,29.647462,76.983436,7375006031,,raokartik99@gmail.com,"118-119 Miles Stone, GT Road, NH - 1, Karnal, Haryana 132001"
Jeep,Kochi,Gma Pinnacle Automotives,10.049753,76.31631,7559997799,,crm@pinnaclejeep.com,"Door No.601,14/601, Choornikkara Grama Panchayath, NH 47, PO Thaikkattukara, Aluva, Opposite to Muttam Metro Station, Kochi, Kerala 683591"
Jeep,Kolhapur,Aaron Wheels Llp,16.699822,74.24893,7375004702,,rekhaaaronfiat@gmail.com',"1169 B/2, Rajaram Road, “E” Ward, Kolhapur, Maharashtra 416001"
Jeep,Kolkata,Celica Automobiles,22.551424,88.354101,9051035485,,info@celica.in,"24, Park Street, Ground Floor of Annex Building, Kolkata, West Bengal 700016"
Jeep,Kota,Mundra Automobiles,25.134135,75.864184,7665012390,,"mundrafiatcars@gmail.com, mundrafiatservice@gmail.com","G-10, Road No.5, Automobile Zone, Kota, Rajasthan 324005"
Jeep,Kozhikode,Kvr Motor Cars,11.28103,75.770104,9605733311,,gm@kvrfiat.com,"Tellicherry Road, Thazhe Chovva, Near South railway Gate, Kozhikode, Kerala 673005"
Jeep,Kozhikode,Kvr Motors,11.280108,75.771606,9605733311,,shinoj.pn@kvr-fca.com,"1/3446 F, West Hill (PO), Calicut, Near Kanakalaya Bank, Chakkorathukulam, Kozhikode, Kerala 673005"
Jeep,Lucknow,Classic Cars,26.879906,80.934579,7375097861,,classic.fiatcars@gmail.com,"Sitapur Road, Daliganj Railway Crossing, Near Central Bank Of India, Lucknow, Uttar Pradesh 226020"
Jeep,Ludhiana,Goyal Jeep,30.661156,76.296519,7375006032,,salesjeep.ldh@gitanshgroup.com,"Village Jugiana, G.T Road, adjoining IBP Petrol Pump, Ludhiana, Punjab 141014"
Jeep,Madurai,Aras Pvpv Motori,9.966555,78.15953,9585277888,,fiat.sales@araspvpv.in,"35/1, Dindigul National Highways, Vilangudi, Madurai, Near ARC Parcel Service, Madurai, Tamil Nadu 625008"
Jeep,Meerut,Crystal Motorcars Private Limited,28.92417,77.652326,7375091727,,customer@crystal-fca.com,"363/2, IE KUNDA, Delhi Road, Bypass road, Pratap pur, Meerut, Uttar Pradesh 250002"
Jeep,Mohali,Wsl Automobiles,30.716797,76.702607,7375006409,,arnav.gupta3095@gmail.com,"Plot No. D-144, Wsl Auto, Sector-73, Industrial Area Phase-7, Phase 7, Mohali, Punjab 160055"
Jeep,Mumbai,Landmark Lifestyle Cars,18.988854,72.813912,7045877721,,cre.sales@landmarkjeep.in,"D block, Dr Annie Besant Rd, Worli, Shiv Sagar Estate, Mumbai, Maharashtra 400018"
Jeep,Mumbai,Landmark Lifestyle Cars,19.118659,72.850406,9867096727,,susheel.m@landmarkjeep.in,"Juhu lane,  C.D. Barfiwala Marg, Andheri (W), Peninsula Heights, Mumbai, Maharashtra 400058"
Jeep,Mysore,Urs Kar Service Centre,12.32507,76.611643,9611133546,,sm.fiat@urskar.com,"No.201, Hunsur Main Road, Hinkal, Survey 1/B, Mysore, Karnataka 570017"
Jeep,Nagpur,Central Avenue  Trading Company,21.151813,79.143935,9881722001,,,"Plot No.40, Old Bhandara Road, Jalaram Nagar, Near Railway Crossing, Nagpur, Maharashtra 440008"
Jeep,Nashik,Moharir Auto,19.991638,73.741112,8446670555,,jeepnashik@gmail.com,"Plot.No.07 ,  Trimbak Road, S.No.1043/02/02, Nashik, Maharashtra 422002"
Jeep,New Delhi,Landmark Lifestyle Cars,28.50917,77.298692,7375003424,,purvi.g@landmarkjeep.in,"D5, Block No. B1, Mathura Road, Mohan Cooperative Industrial Area, New Delhi, Delhi 110044"
Jeep,New Delhi,Landmark Lifestyle Cars,28.509809,77.081508,7375003424,,purvi.g@landmarkjeep.in,"Plot No.10A, Motinagar, Shivaji Marg, New Delhi, Delhi 110015"
Jeep,Panaji,Mvr Automotive,15.466709,73.806588, 08322463919,,info@mvr-fca.com,"15/53/A3, Miramar Highway, Miramar In Tiswadi, Opp Harley Davidson Showroom-Caranzalem, Panaji, Goa 403001"
Jeep,Panaji,Quadros Motors,15.485306,73.834706,8411004077,,quadrosmotors.blossom@gmail.com,"Shop No 2 , Dukle Arcade St Inez , Panaji, Goa 403001"
Jeep,Panipat,Rahul Pam,29.799702,77.004836,,,,"GT Road, Opp Sector-25, Near Laskeri Mal Satish Chander Petrol Pump, Panipat, Haryana 132103"
Jeep,Patna,Rrukmani Group Automobiles,25.599929,85.183992,7070095631,,rukmaniautomobiles@gmail.com," Kankarbagh Mainroad, Kumhrar, Vasudeo Commercial Complex, Patna, Bihar 800020"
Jeep,Pune,Sky Moto Automobiles,18.54527,73.92064,9881716361,,Sm@skymoto.in,"Showroom no. 01 & 02, Ground Floor,  Senapati Bapat Road, Sr. No. 403,  ICC Tech Park , Pune, Maharashtra 411016"
Jeep,Pune,Sky Moto Automobiles,18.530681,73.829895,8380044456,,salesmanager@skymoto-fca.com,"ICC Tower, Ground Floor, Senapati Bapat Road, Pune, Near Pantaloon Mall,Opp. J W Marriott Hotel, Pune, Maharashtra 411052"
Jeep,Pune,Sky Moto Automobiles,18.603273,73.752605,8380061277,,crm@skymoto-fca.com,"Shop Bearing No-102, Ground Floor, Pushpak Business Hub, Pune-Mumbai Highway, Bhumkar Chowk, Village-Wakad, Survey No-130/4/1B+5B, 130/4/1B+5K/3& 130/4/1B+5B/3, Pune, Maharashtra 411057"
Jeep,Pune,Sky Moto Automobiles,18.514459,73.93246,,,,"Sr No-145, Magarpatta Road, Keshav Nagar, Hadapsar, Near Magarpatta City Main Gate, Pune, Maharashtra 411028"
Jeep,Raipur,Car Planet Enterprises,21.220896,81.649196,8962765553,,reena2529@gmail.com,"Ring Road No.1, Upadhyay Nagar, Opposite to Deen Dayal , Raipur, Chhattisgarh 492013"
Jeep,Rajkot,Pride Pd Cars Private Limited,22.244125,70.800399,9033409900,,GM@PRIDEFIAT.COM,"Gondal-Ahmedabad, By Pass Circle, Beside of Flyover, Gondal Road, National Highway 8-B, Rajkot, Gujarat 360004"
Jeep,Ranchi,K. P. Automobiles,23.378836,85.356038,7781017907,,kpautorncsales@gmail.com,"H.B Road, Kokar,   Near Post Office, Ranchi, Jharkhand 834001"
Jeep,Rohtak,Sahil Automobiles,28.896058,76.604596,,,,"90/1, Hissar Road, Rohtak, Near Invitation Garden, Rohtak, Haryana 124001"
Jeep,Salem,The True Sai Motorss,11.689354,78.128881,9003979786,,crm.sales@truesaimotorss.com,"Omalur Main Road, Narasodhipatti, Near Hotel Grand Estancia, Salem, Tamil Nadu 636004"
Jeep,Satara,Krishna Auto Link,17.721944,74.024451,9823648008,,krishnafiatfinance@gmail.com',"Sr. No. 522 B, 523 B, 513, At. Post. Wadhe, Near NH4, Satara, Maharashtra 412801"
Jeep,Secunderabad,A V Motors - Showroom,17.424152,78.493019,9505516655,,jeep@avmotors.co.in,"1-8-303/45, Secunderabad, Minister Road, Secunderabad, Telangana 500003"
Jeep,Solan,Tapan Industries,30.887718,77.088318,8629000372,,fcasalesmanagersolan@tapan.industries,"Barog Bye Pass, Solan, Goyal Complex-1, Shamlech, Solan, Himachal Pradesh 173211"
Jeep,Sonipat,Sahil Automobile Private Limited,28.974702,77.017815,7375006389,,smsales@sahilfiat.com,"E  56-57, Sahil Automobile Private limited, Main Rohtak road, Industrial area, Sonipat, Haryana 131001"
Jeep,Srinagar,Arg Automobiles,34.035511,74.802056,7375006325,,gmotors98@gmail.com,"Goripora Byepass, Sanatnagar, Near CRPF camp, Srinagar, Jammu and Kashmir 190008"
Jeep,Surat,Sukrit Autolink,21.153022,72.779172,9723202041,,sukrit.autolink1562@gmail.com,"G1 & G2 , Milagro Mile Stone, Someshwar Cross Road, Udhna Magdalla Road, Gujarat University,Vesu, Near Vir Narmad South, Surat, Gujarat 395007"
Jeep,Thiruvananthapuram,Deedi Motors Private Limited,8.506901,76.908237,9995808103,,gibusam.gn@deedi-fca.com,"NH Bypass, Erumalathop, Anayara P.O., Venpalavattom, Thiruvananthapuram, Kerala 695029"
Jeep,Thrissur,Hyson Auto Sales,10.497542,76.263397, 9526049500,, smsalesthrissur@hysonfiat. com,"TC 9/275-9, NH-47, Kuttanellur, Mannuthy By-pass, Thrissur, Kerala 680014"
Jeep,Tiruchirappalli,Jayarj Carz,10.744032,78.642701,7073685333,,jayarajcarz@jeepindia.com,"152/2, Tiruchy-Madurai Main Road, Panjapur, Tiruchirappalli, Tamil Nadu 620012"
Jeep,Tirunelveli,Rehoboth Cars,8.742201,77.716688,9360277702,,salesrehobothfiat@gmail.com,"134/5A1, Nh-7, Reddiarpatti Village, Kanyakumari-Madurai 4 Lane Way, Tirunelveli, Tamil Nadu 627007"
Jeep,Thiruvananthapuram,Deedi Motors Private Limited,8.506901,76.908237,9995808103,,gibusam.gn@deedi-fca.com,"NH Bypass, Erumalathop, Anayara P.O., Venpalavattom, Thiruvananthapuram, Kerala 695029"
Jeep,Udaipur,Nidhi Kamal Company,24.574009,73.746999,8094111189,,gm@nidhikamalfca.com,"E- 78, Nidhi kamal Jeep, Mewar Industrial Area, Madri, Udaipur, Rajasthan 313001"
Jeep,Vadodara,Bhaskara Automotion,22.384469,73.153588,9825007847,,bhaskarasales2@gmail.com,"460, Old NH - 8, Dashrath,  Opposite GSFC Colony Entrance,Near Ashok Leyland, Vadodara, Gujarat 390001"
Jeep,Vijayawada,Turbo Automotives,16.514925,80.705181,8886626635,,crm.turbofiat@gmail.com,"No.195/4 N 195/5 , NH-5 Road, Enikepadu,  Opp. Enikepadu Panchyat Office, Vijayawada, Andhra Pradesh 520001"
Jeep,Visakhapatnam,Orange Automobiles,17.740568,83.301258,7799888247,,,"Ground Floor , RR House, Port Stadium,  Narasimha Nagar, Visakhapatnam, Andhra Pradesh 530024"
Jeep,Visakhapatnam,Orange Automobiles,17.740568,83.301258,7799888247,,,"Ground Floor , RR House, Port Stadium,  Narasimha Nagar, Visakhapatnam, Andhra Pradesh 530024"
Jeep,Warangal,Sree Krishna Automotives,17.985919,79.572712,,,,"SY No-110, H No 23-6-114/2, Hunter Road, Shayampet, Opp FCI Godown's, Warangal, Telangana 506002"
Lamborghini,Bangalore,Lamborghini Mumbai,12.970803,77.598015,9591033670,,,"19/1, Vittal Malya Road, Doddamani, Near La Gardenia, Bangalore, Karnataka 560001"
Lamborghini,Bangalore,Lamborghini Mumbai,12.970803,77.598015,9591033670,,,"19/1, Vittal Malya Road, Doddamani, Near La Gardenia, Bangalore, Karnataka 560001"
Lamborghini,New Delhi,Lamborghini Delhi,28.508554,77.299438,9711300700,,,"A-16, Mathura Road, Mohan Co-operative Industrial Estate, Block E, New Delhi, Delhi 110044"
Lamborghini,Mumbai,Lamborghini Mumbai,19.012736,72.824319,9223542919,,,"Appassaheb Marathe Marg, Prabhadevi, Next To Century Bazzar, Mumbai, Maharashtra 400025"
Lamborghini,New Delhi,Lamborghini Delhi,28.508554,77.299438,9711300700,,,"A-16, Mathura Road, Mohan Co-operative Industrial Estate, Block E, New Delhi, Delhi 110044"
Land Rover,Ahmedabad,Cargo Motors,22.997124,72.498506,9978442691,,,"""aarambh"" Nr. Makarba, Sarkhej - Gandhinagar Hwy, Bodakdev, Opp. Rajpath Club, Ahmedabad, Gujarat 380015"
Land Rover,Aurangabad,Satish Motors,19.860131,75.402904,8551047777,,,"Showroom Gut No 135, Waladgaon, Waluj, Opp. Bajaj Auto Ltd, Aurangabad, Maharashtra 423701"
Land Rover,Bangalore,Marqland Motors,12.910933,77.627031,9686660235,,,"No 32/5, Hosur Road Opp., Roopen Agrahara, Bommanahalli, Royal Oak, Bangalore, Karnataka 560068"
Land Rover,Bangalore,Marqland Motors,12.910933,77.627031,9686660235,,,"No 32/5, Hosur Road Opp., Roopen Agrahara, Bommanahalli, Royal Oak, Bangalore, Karnataka 560068"
Land Rover,Chandigarh,Dada Motors,30.744908,76.784795,9876039026,,Deepak.k@dadamoter.com,"Showroom No. 8, Sec-17, Hotel Taj Shopping Arcade, Chandigarh, Chandigarh 160017"
Land Rover,Chennai,V S T Grandeur,13.065167,80.257132,7375092939,,sales@vstgrandeur.com,"A Wing, New No. 62, Old No.31 & 32, Kgn Towers, Ground Floor, Ethiraj Salai,egmore, Near Shri Kanchi Selva Vinayagar Alayam, Chennai, Tamil Nadu 600008"
Land Rover,Kochi,Muthoot Motors,9.947754,76.318065,8129996999,,,"32/2996B, JLR Division, Kundanoor, Maradu, P.O, NH-47 Bye Pass, Kochi, Kerala 682001"
Land Rover,Coimbatore,Vst Grandeur,10.996301,77.062015,7375093242,,info.cbe@vstgrandeur.com,"145-1c-1, L&t Bye-pass Road, Ondipudur, Oddarpalayam, Coimbatore, Tamil Nadu 641016"
Land Rover,Cuttack,Empreo Prestige,20.407779,85.879371,7735477771,,sourav.sahu@empreoprestige.com,"Bhanpur, Pratapnagari, P.O, Cuttack, Orissa 753011"
Land Rover,Cuttack,Lexus Motors,20.462521,85.88299,7894432002,,jlr@lexusmoters.in,"N.h.5, Cuttack-bhubaneshwar Road, Pratapnagari, Post- Bhanpur, Cuttack, Orissa 753011"
Land Rover,New Delhi,A M P Motors,28.507778,77.297298,7375880569,,,"A-5, Mathura Road, Mohan Cooperative Industrial Estate, Block E, New Delhi, Delhi 110001"
Land Rover,New Delhi,Amp Motors,28.661854,77.152519,7375880658,,abhi.sharma@ampmotors.in,"31, Moti Nagar, Shivaji Marg, New Delhi, Delhi 110015"
Land Rover,New Delhi,Amp Motors,28.533327,77.285621,+911146922222,,,"A-5, Mathura Road, Mohan Co-op Industrial Estate, New Delhi, Delhi 110044"
Land Rover,Guntur,Lakshmi Jlr,16.431136,80.591887,7997991369,,ceo@lakshmijlr.co.in,"Sy. No 397/1, Atmakuru Village, Mangalagiri, Guntur, Andhra Pradesh 522502"
Land Rover,Gurgaon,Amp Motors,28.463608,77.065221,7375880239,,laxmi.pradhan@ampmotors.in,"Sco-316, Sector-29, Near Gymkhana Club, Gurgaon, Haryana 122001"
Land Rover,Gurgaon,Amp Motors,28.463608,77.065221,7375880239,,laxmi.pradhan@ampmotors.in,"Sco-316, Sector-29, Near Gymkhana Club, Gurgaon, Haryana 122001"
Land Rover,Hyderabad,Pride Motors,17.430032,78.41028,040-23606148,,info@inlineno4moters.com,"Plot No. 461, Odyssey Mall, Rd No.36, Jubilee Hills, Near Arrow Advertising, Hyderabad, Telangana 500033"
Land Rover,Indore,Sanghi Brothers,22.770981,75.907993,8889912691,,,"Mr11, Mangal Compound, Ring Road, Gram Pipliyakumar, Devas Naka Lasudia Mori, Indore, Madhya Pradesh 452010"
Land Rover,Jaipur,Amp Motors,26.907973,75.74092,7375880448,,swati.bhardwaj@ampmotors.in,"Ashram Marg, Jaipur Marriot, Jaipur, Rajasthan 302015"
Land Rover,Karnal,Malwa Automotives,29.685783,76.990473,8295511111,,,"Village Kambopura, 118/5 Km Stone, Karnal, Haryana 132001"
Land Rover,Kochi,Muthoot Motors,9.947754,76.318065,8129996999,,,"32/2996B, JLR Division, Kundanoor, Maradu, P.O, NH-47 Bye Pass, Kochi, Kerala 682001"
Land Rover,Kolkata,Lexus Motors,22.543349,88.360227,9831010982,,jlrdesk@lexusmoter.in,"41a, A J C Bose Road, Mullick Bazar, Near Nonapukur Tram Depot, Kolkata, West Bengal 700017"
Land Rover,Kolkata,Lexus Motors,22.371387,88.273991,,,,"Plot No IID/13–14, Maj. Arterial Rd, Kolkata, Near Town Rajarhat, Action Ar Ii, Kolkata, West Bengal 700002"
Land Rover,Lucknow,VISHAL CARS,26.766668,80.873454,7930296300,,,"C-1/19 TO C-1/22, Amar Shaheed Path, Transport Nagar Phase-2, Lucknow, Uttar Pradesh 226012"
Land Rover,Ludhiana,Dada Motors,30.842623,75.97533,9814026262,,info@dadamotors.com,"G.T. Road, Sahnewal, Opp. Govt Girls Sen.Sec.School, Ludhiana, Punjab 141120"
Land Rover,Mangalore,Marqland,12.867503,74.905696,082-42276999,,,"NH-75 Mangaluru-Bangalore Highway, Kannur, Near Kannur Checkpost, Mangalore, Karnataka 575007"
Land Rover,Mangalore,Marqland Motors,12.867659,74.905731,+918242276399,,,"22/1A,22/1C, 22/2A, Mangaluru, Kannur Village, Mangalore, Karnataka 575007"
Land Rover,Mumbai,Modi Motors,18.990505,72.813658,8088659564,,,"Plot No. 1 A, Ceejay House, Ground Floor, Worli, Shivsagar Estate, Mumbai, Maharashtra 400083"
Land Rover,Mumbai,Navnit Motors,19.138369,72.831591,022-67000000,,,"Plot No. B 45/46, Fortune Terraces, New Link Road, Andheri (West), Opp. Citi Mall, Mumbai, Maharashtra 400053"
Land Rover,Nagpur,Anand Techno Marketing  Pvt. Ltd.,21.148997,79.003049,7375098292,,harshal.kohadkar@anandgroup.net.co,"D-3, Anand Techno Marketing  Pvt. Ltd, MIDC Hingna, Near Wadi Toll Naka, Nagpur, Maharashtra 440028"
Land Rover,New Delhi,A M P Motors,28.507778,77.297298,7375880569,,,"A-5, Mathura Road, Mohan Cooperative Industrial Estate, Block E, New Delhi, Delhi 110001"
Land Rover,New Delhi,Amp Motors,28.661854,77.152519,7375880658,,abhi.sharma@ampmotors.in,"31, Moti Nagar, Shivaji Marg, New Delhi, Delhi 110015"
Land Rover,New Delhi,Amp Motors,28.533327,77.285621,+911146922222,,,"A-5, Mathura Road, Mohan Co-op Industrial Estate, New Delhi, Delhi 110044"
Land Rover,Noida,Shiva Motocorp,28.592356,77.322163,7375006526,,,"Sector 5, A-108, Noida, Uttar Pradesh 201301"
Land Rover,Pune,Ace Perkins,18.326018,73.514999,7375802804,,sales@aceperkins.in,"Block No. 1, Godrej Eternia, Pune Mumbai Road, Wakdewadi, Next To Shoppers Stop, Pune, Maharashtra 411005"
Land Rover,Raipur,Satyam Balajee,21.233315,81.643963,8518887087,,jlr@satyambalaji.com,"National Highway No 6, Ring Road No 1, Tatibandh, Janta Colony, Raipur, Chhattisgarh 492011"
Land Rover,Surat,Navjivan,21.167672,72.820805,9737105222,,samir.v@jlr-navjivan.com,"Surat, Surat Dumas Road, Surat, Gujarat 395007"
Lexus,Bangalore,Lexus Bangalore,12.965196,77.596674,1800 300 53987,,contact@lexusindia.co.in,"No: 9/1, Richmond Circle, SKAV909, Bangalore, Karnataka 560001"
Lexus,Bangalore,Lexus Bangalore,12.965196,77.596674,1800 300 53987,,contact@lexusindia.co.in,"No: 9/1, Richmond Circle, SKAV909, Bangalore, Karnataka 560001"
Lexus,New Delhi,Lexus New Delhi,28.618857,77.219671,1800 3005 3987,,,"Janpath, 22A, New Delhi, Delhi 110001"
Lexus,Gurgaon,Lexus Gurgaon,28.502325,77.088621,1800 3005 3987,,,"443, The Oberoi, Phase V, Udyog Vihar, Gurgaon, Haryana 122016"
Lexus,Gurgaon,Lexus Gurgaon,28.502325,77.088621,1800 3005 3987,,,"443, The Oberoi, Phase V, Udyog Vihar, Gurgaon, Haryana 122016"
Lexus,Mumbai,Lexus Mumbai,19.089766,72.865467,1800 3005 3987,,,"Taj Santacruz,  Luxury Retail Arcade, Santacruz East, Chhatrapati Shivaji International Airport (Domestic Terminal) Off: Western Express Highway, Mumbai, Maharashtra 400099"
Lexus,New Delhi,Lexus New Delhi,28.618857,77.219671,1800 3005 3987,,,"Janpath, 22A, New Delhi, Delhi 110001"
Maserati,Bangalore,Jubilant Autoworks,12.965304,77.59773,080-46401111,,,"301 & 302, Reheja Paramount, 138, Residency Road, Near Richmond Circle, Bangalore, Karnataka 560025"
Maserati,Bangalore,Jubilant Autoworks,12.965304,77.59773,080-46401111,,,"301 & 302, Reheja Paramount, 138, Residency Road, Near Richmond Circle, Bangalore, Karnataka 560025"
Maserati,Mumbai,Petal Maserati,19.099965,72.843043,7878751000,, sales@petalmaserati.com,"Luxury Retail Arcade, Csi Airport, Taj Santacruz, Domestic Terminal, Mumbai, Maharashtra 400099"
Mercedes-Benz,Ahmedabad,Benchmark Cars,23.072141,72.524711,7375090515,,"sunoj.t@mb-benchmarkcars.in, tl.ivrs@mb-benchmarkcars.in","S.G. Road Sola, Sun Court, Near Sola Flyover, Ahmedabad, Gujarat 380063"
Mercedes-Benz,Ahmedabad,Emerald Motors,23.019552,72.558098,7878733555,,receptionmb@emeraldmercedes.com,"Plot no. 4, Shantisadan Society, C G Road, Nr. Parimal Garden, Ahmedabad, Gujarat 380006"
Mercedes-Benz,Ahmedabad,Landmark Cars,23.026472,72.478957,7967122000,,,"Survey No. 390 / 353 P,  Bus Stand, Near Ambli BRTS, Ahmedabad, Gujarat 380058"
Mercedes-Benz,Aurangabad,Moharir Auto,19.828411,75.273862,918381062555,,,"GAT No:- 143, Ahmednagar Road, Waladgaon, Opposite Bajaj Auto Ltd, Next to Deccan Honda, Aurangabad, Maharashtra 431210"
Mercedes-Benz,Bangalore,Akshaya Motors,12.923942,77.497206,7375093646,080-22966310,sales@akshayabenz.com,"Survey no 77/1, Mysore Road, Valagerehalli Village, Opp. Rv College Of Engineering, Bangalore, Karnataka 560059"
Mercedes-Benz,Bangalore,Akshaya Motors,12.924224,77.497419,7375094858,,sales@akshayabenz.com,"107/3, 80 Feet Road, Koramangala 4th Block, Duvasapalya, Bangalore, Karnataka 560059"
Mercedes-Benz,Bangalore,Advaith Motors,12.933907,77.628498,8022966296,,,"115, Koramangala, Srinivagilu Main Road, Koramangala 4-C Block, Bangalore, Karnataka 560034"
Mercedes-Benz,Bangalore,Sundaram Motors,12.973799,77.596224,7375002634,080-22273533,"salesmgr@sundarammotors.com,saleshostessblr@sundarammotors.com","Kasturba Road, 107, Bangalore, Karnataka 560001"
Mercedes-Benz,Bangalore,Sundaram Motors,12.991144,77.709233,7375002783,,,"10/1A, Hoodi Industrial Area, White Field Road, Hoodi, Mahadevapura Post, Bangalore, Karnataka 560048"
Mercedes-Benz,Bangalore,Akshaya Motors,12.923942,77.497206,7375093646,080-22966310,sales@akshayabenz.com,"Survey no 77/1, Mysore Road, Valagerehalli Village, Opp. Rv College Of Engineering, Bangalore, Karnataka 560059"
Mercedes-Benz,Bangalore,Akshaya Motors,12.924224,77.497419,7375094858,,sales@akshayabenz.com,"107/3, 80 Feet Road, Koramangala 4th Block, Duvasapalya, Bangalore, Karnataka 560059"
Mercedes-Benz,Bangalore,Advaith Motors,12.933907,77.628498,8022966296,,,"115, Koramangala, Srinivagilu Main Road, Koramangala 4-C Block, Bangalore, Karnataka 560034"
Mercedes-Benz,Bangalore,Sundaram Motors,12.973799,77.596224,7375002634,080-22273533,"salesmgr@sundarammotors.com,saleshostessblr@sundarammotors.com","Kasturba Road, 107, Bangalore, Karnataka 560001"
Mercedes-Benz,Bangalore,Sundaram Motors,12.991144,77.709233,7375002783,,,"10/1A, Hoodi Industrial Area, White Field Road, Hoodi, Mahadevapura Post, Bangalore, Karnataka 560048"
Mercedes-Benz,Bhopal,Benchmark Cars,23.253158,77.446943,9007085022,0755-0000000,bhopalmb@mb-benchmarkcars.in,"1/2, Govindpura Industrial Area, Near M.P.E.B Office, Bhopal, Madhya Pradesh 462001"
Mercedes-Benz,Bhubaneswar,Tristar Motors,20.278717,85.797106,7852944100,,"susanta@tristarmotors.in,sales.bbsr@tristarmotors.in","Plot No. 10(p) & 12(p), Baramunda, City Mart, Bhubaneswar, Orissa 751003"
Mercedes-Benz,Kozhikode,Bridgeway Motors,11.280247,75.770267,7034488888,,,"Kannur Road, Nh 17, West Hill Po, Kozhikode, Kerala 673005"
Mercedes-Benz,Kozhikode,Bridgeway Motors,11.199703,75.863963,7034488888,,gmaftersales@bridgewaymotors.co.in,"Farook College, Farook College Post Office, Paruthipara Road, Kozhikode, Kerala 673632"
Mercedes-Benz,Chandigarh,Joshi Auto Zone,30.700312,76.789627,9878622222,,customercare@joshiautozone.com,"Industrial Area Phase -2, Plot number 84-85, Chandigarh, Chandigarh 160002"
Mercedes-Benz,Chennai,V.s.t Titanium Motors,12.957135,80.24846,7375006198,,,"115, Perungudi, Estate Main Road Industrial Estate, Chennai, Tamil Nadu 600096"
Mercedes-Benz,Chennai,V.s.t Titanium Motors,13.062585,80.26401,7375006393,,,"199, Triplicane, Anna Salai, Mount Road, Express Estate, Chennai, Tamil Nadu 600002"
Mercedes-Benz,Chennai,Sundaram Motors,13.104415,80.160329,,,,"80/81, Chennai, Ambattur Industrial Estate, Chennai, Tamil Nadu 600058"
Mercedes-Benz,Chennai,Titanium Motors,12.951027,80.239319,7375006197,044-66498181,chennaisales@titaniummotors.in,"148 k, Old mahabalipuram road, Thoraipakka, Post Office Street, Seevaram okkiyam, Chennai, Tamil Nadu 600096"
Mercedes-Benz,Kochi,Rajasree Motors,9.9443,76.318533,14842607027,,,"P.O Alwaye, N H 47 Kunnumpuram Desam, Kochi, Kerala 683591"
